{"category":"culture","generated_at":"2026-07-17T18:42:38.868833+00:00","bbox":"-37.2926,174.3289,-36.3911,175.6288","source":"OpenStreetMap via Overpass API","elements":[{"type":"node","id":65389942,"lat":-36.8683617,"lon":174.7775985,"tags":{"addr:housenumber":"167-169","addr:street":"Broadway","amenity":"cinema","name":"Rialto Newmarket","phone":"+64 9 369 2417","website":"https://www.rialto.co.nz/Cinema/Newmarket","wheelchair":"limited"}},{"type":"node","id":249673696,"lat":-36.9927604,"lon":175.5527059,"tags":{"name":"Rapaura Water Gardens","tourism":"attraction"}},{"type":"node","id":260727342,"lat":-36.8661991,"lon":174.7783286,"tags":{"addr:city":"Auckland","addr:housenumber":"77","addr:street":"Broadway","amenity":"cinema","brand":"Event Cinemas","brand:wikidata":"Q5416698","brand:wikipedia":"en:Event Cinemas","name":"Event Cinemas Broadway","operator":"Skycity","phone":"+64 9 369 2441","website":"https://www.eventcinemas.co.nz/Cinema/Broadway","wheelchair":"limited"}},{"type":"node","id":262078398,"lat":-36.8151213,"lon":174.8060139,"tags":{"historic":"fort","name":"Fort Takapuna","ref:nz:heritage":"86","tourism":"attraction","wikidata":"Q79301071"}},{"type":"node","id":294042724,"lat":-36.8633213,"lon":174.7801452,"tags":{"addr:housenumber":"545","addr:postcode":"1052","addr:street":"Parnell Road","addr:suburb":"Parnell","amenity":"library","name":"Parnell Library","name:en":"Parnell Library","name:mi":"Te Whare Pukapuka o Parnell","opening_hours":"Mo-Fr 09:00-18:00; Sa 09:00-16:00","operator":"Auckland Libraries","operator:en":"Auckland Libraries","operator:mi":"Ngā Pātaka Kōrero o Tāmaki Makaurau","operator:type":"government","operator:wikidata":"Q4819503","ref:linz:address_id":"1140799"}},{"type":"node","id":305107429,"lat":-36.7627342,"lon":175.1738129,"tags":{"description":"Historic gun emplacements and tunnels","historic":"fort","name":"Fort Stony Batter","tourism":"attraction"}},{"type":"node","id":307934399,"lat":-36.8176656,"lon":175.0361465,"tags":{"created_by":"Potlatch 0.10e","name":"Te Whau vineyard","tourism":"attraction"}},{"type":"node","id":311588457,"lat":-36.8117166,"lon":175.0690746,"tags":{"created_by":"Potlatch 0.10f","name":"Whakanewha Regional Park Entrance","tourism":"attraction"}},{"type":"node","id":328914581,"lat":-36.786739,"lon":174.7720478,"tags":{"amenity":"cinema","name":"Takapuna Beachside Cinemas","old_name":"Berkeley Cinemas","screen":"4","website":"https://montereytakapuna.co.nz"}},{"type":"node","id":410314864,"lat":-37.1358345,"lon":175.5409776,"tags":{"addr:city":"Thames","addr:street":"Pollen Street","amenity":"cinema","name":"Embassy Cinemas"}},{"type":"node","id":467025275,"lat":-37.0208429,"lon":174.8973476,"tags":{"addr:postcode":"2102","amenity":"library","contact:facebook":"https://facebook.com/ManurewaLibrary","internet_access":"wlan","internet_access:fee":"no","internet_access:ssid":"Library Free Wi-Fi","name":"Manurewa Library","name:en":"Manurewa Library","name:mi":"Te Pātaka Kōrero o Manurewa","opening_hours":"Mo,Th 09:00-19:00; Tu-We,Fr-Sa 09:00-17:00; Su off","operator":"Auckland Libraries","operator:en":"Auckland Libraries","operator:mi":"Ngā Pātaka Kōrero o Tāmaki Makaurau","operator:type":"government","operator:wikidata":"Q4819503","operator:wikipedia":"en:Auckland Libraries","phone":"+64 9 377 0209","wheelchair":"yes","wikidata":"Q100762990"}},{"type":"node","id":468079674,"lat":-36.9902693,"lon":174.8806638,"tags":{"amenity":"cinema","brand":"Event Cinemas","brand:wikidata":"Q5416698","brand:wikipedia":"en:Event Cinemas","check_date":"2024-11-14","name":"Event","official_name":"Event Cinemas"}},{"type":"node","id":493885563,"lat":-36.8198324,"lon":174.6127328,"tags":{"amenity":"cinema","brand":"Event Cinemas","brand:wikidata":"Q5416698","brand:wikipedia":"en:Event Cinemas","name":"Event Cinemas Westgate"}},{"type":"node","id":539386705,"lat":-36.7692318,"lon":174.7509372,"tags":{"amenity":"kindergarten","name":"Westlake Forest Hill Kindergarten"}},{"type":"node","id":567549237,"lat":-36.8165082,"lon":175.5386031,"tags":{"addr:city":"Coromandel","addr:housenumber":"471","addr:postcode":"3581","addr:street":"The 309 Road","addr:suburb":"Waiau","name":"The Waterworks","opening_hours":"Mo-Su 10:00-18:00","ref:linz:address_id":"718208","tourism":"attraction","website":"https://thewaterworks.co.nz/"}},{"type":"node","id":581581986,"lat":-37.129391,"lon":175.5365464,"tags":{"historic":"yes","name":"Goldmine Experience","tourism":"attraction","website":"https://www.goldmine-experience.co.nz/"}},{"type":"node","id":596783495,"lat":-36.8916931,"lon":174.5494431,"tags":{"name":"Waitākere Tramline","tourism":"attraction"}},{"type":"node","id":656678121,"lat":-36.923046,"lon":174.7012332,"tags":{"amenity":"music_school","education":"music_school","name":"Blockhouse bay School of Music"}},{"type":"node","id":691034158,"lat":-37.2656379,"lon":174.9393188,"tags":{"amenity":"kindergarten","name":"Tuakau Kindergarten"}},{"type":"node","id":726516297,"lat":-36.8418093,"lon":174.6521439,"tags":{"addr:housenumber":"595","addr:postcode":"0610","addr:street":"Te Atatu Road","addr:suburb":"Te Atatu","amenity":"library","name":"Te Atatū Peninsula Library","operator":"Auckland Libraries","operator:en":"Auckland Libraries","operator:mi":"Ngā Pātaka Kōrero o Tāmaki Makaurau","operator:type":"government","operator:wikidata":"Q4819503"}},{"type":"node","id":760256706,"lat":-36.9234485,"lon":174.6544183,"tags":{"amenity":"kindergarten","check_date":"2024-11-13","education":"kindergarten","name":"Kaurilands Community Kindergarten"}},{"type":"node","id":770722488,"lat":-36.7742038,"lon":174.4901739,"tags":{"amenity":"kindergarten","name":"Waimauku Playcentre"}},{"type":"node","id":800043064,"lat":-36.9110689,"lon":174.68036,"tags":{"addr:street":"Ambrico Place","addr:suburb":"New Lynn","historic":"yes","man_made":"kiln","name":"Ambrico Kiln","tourism":"attraction"}},{"type":"node","id":807389886,"lat":-36.8645444,"lon":174.6029696,"tags":{"amenity":"kindergarten","check_date":"2024-10-05","name":"Ranui Playcentre"}},{"type":"node","id":832543535,"lat":-36.8364773,"lon":174.7592448,"tags":{"name":"Dredge Driving Wheels","tourism":"attraction","wikidata":"Q134800204"}},{"type":"node","id":848550597,"lat":-36.7239628,"lon":174.693455,"tags":{"name":"Art Gallery","tourism":"attraction"}},{"type":"node","id":873457351,"lat":-36.7887598,"lon":174.7281273,"tags":{"amenity":"kindergarten","name":"Marlborough Kindergarten"}},{"type":"node","id":886149195,"lat":-36.8516331,"lon":174.7637552,"tags":{"addr:city":"Auckland","addr:street":"Queen Street","amenity":"cinema","brand":"Event Cinemas","brand:wikidata":"Q5416698","brand:wikipedia":"en:Event Cinemas","name":"Event Cinemas","name:en":"Event Cinemas","name:ja":"イベントシネマ・クイーンストリート館","official_name":"Event Cinemas Queen Street","website":"https://www.eventcinemas.co.nz/cinema/queen-street","wheelchair":"yes"}},{"type":"node","id":926022749,"lat":-36.9427094,"lon":174.4646885,"tags":{"amenity":"kindergarten","name":"Piha Community Pre School"}},{"type":"node","id":944774596,"lat":-36.8179699,"lon":174.745162,"tags":{"amenity":"cinema","name":"The Bridgeway"}},{"type":"node","id":955769517,"lat":-36.7586905,"lon":174.7407165,"tags":{"addr:housenumber":"110","addr:street":"Sunnynook Road","amenity":"kindergarten","check_date":"2024-10-12","name":"Sunnynook Community Centre Creche","opening_hours":"Mo,Tu,Th,Fr 09:00-12:00,13:00-15:30; We 09:00-12:00","phone":"+64 9 410 2370"}},{"type":"node","id":956667644,"lat":-36.7784398,"lon":174.7224777,"tags":{"amenity":"kindergarten","name":"Glenfield Kindergarten"}},{"type":"node","id":965889009,"lat":-37.2077926,"lon":174.9050887,"tags":{"amenity":"kindergarten","name":"Childcare Centre"}},{"type":"node","id":965901543,"lat":-37.1917438,"lon":174.9014509,"tags":{"name":"Hickey Dam Site","tourism":"attraction"}},{"type":"node","id":966610933,"lat":-37.2480411,"lon":174.7287465,"tags":{"addr:city":"Waiuku","addr:housenumber":"10","addr:postcode":"2123","addr:street":"King Street","addr:suburb":"Waiuku","amenity":"library","name":"Waiuku Library","opening_hours":"Mo-Th 09:00-17:00,09:00-16:30,09:00-16:00","ref:linz:address_id":"963671","wikidata":"Q100761702"}},{"type":"node","id":967763822,"lat":-37.2024714,"lon":174.9045161,"tags":{"addr:city":"Pukekohe","addr:housenumber":"12","addr:postcode":"2120","addr:street":"Massey Avenue","addr:suburb":"Pukekohe","amenity":"library","check_date:opening_hours":"2024-08-18","name":"Pukekohe Library","opening_hours":"Mo,We-Fr 09:00-18:00; Tu 09:00-19:00; Sa 09:00-15:00; PH off","operator":"Auckland Libraries","operator:en":"Auckland Libraries","operator:mi":"Ngā Pātaka Kōrero o Tāmaki Makaurau","operator:type":"government","operator:wikidata":"Q4819503","ref:linz:address_id":"1242451","wheelchair":"yes"}},{"type":"node","id":978589799,"lat":-36.9665778,"lon":174.8257466,"tags":{"addr:housenumber":"370","addr:street":"Massey Road","addr:suburb":"Māngere East","amenity":"library","internet_access":"wlan","internet_access:fee":"no","internet_access:ssid":"Library Free Wi-Fi","name":"Māngere East Library","opening_hours":"Mo,Th 09:00-19:00; Tu-We,Fr-Sa 09:00-17:00; Su 12:00-16:00","operator":"Auckland Libraries","operator:en":"Auckland Libraries","operator:mi":"Ngā Pātaka Kōrero o Tāmaki Makaurau","operator:type":"government","operator:wikidata":"Q4819503","ref:linz:address_id":"1180742","wikidata":"Q100763449"}},{"type":"node","id":978589819,"lat":-36.9539836,"lon":174.8073497,"tags":{"amenity":"kindergarten","name":"Favona Kindergarten"}},{"type":"node","id":978610425,"lat":-36.9698247,"lon":174.8309866,"tags":{"amenity":"kindergarten","name":"Kotiri Kindergarten"}},{"type":"node","id":987467209,"lat":-36.5916356,"lon":174.6897083,"tags":{"amenity":"arts_centre","check_date":"2025-07-27","name":"Orewa Arts and Events Centre","wheelchair":"yes"}},{"type":"node","id":989917602,"lat":-36.9410213,"lon":174.9091549,"tags":{"amenity":"kindergarten","brand":"Kindercare","brand:wikidata":"Q111023246","name":"Kindercare"}},{"type":"node","id":1010566616,"lat":-36.6994286,"lon":174.7503788,"tags":{"amenity":"kindergarten","name":"Torbay Kindergarten"}},{"type":"node","id":1033037366,"lat":-36.951564,"lon":174.8865396,"tags":{"amenity":"kindergarten","name":"Mayfield Kindergarten"}},{"type":"node","id":1061334112,"lat":-37.0156102,"lon":174.9024897,"tags":{"amenity":"arts_centre","name":"Manurewa Community Arts Centre"}},{"type":"node","id":1071662733,"lat":-37.0687078,"lon":174.9358215,"tags":{"amenity":"kindergarten","name":"Papakura Kindergarten"}},{"type":"node","id":1104414014,"lat":-36.7803487,"lon":174.6570528,"tags":{"addr:housenumber":"57A","addr:street":"Ferry Parade","amenity":"library","name":"Herald Island Library"}},{"type":"node","id":1139914230,"lat":-36.9145105,"lon":174.7631078,"tags":{"amenity":"arts_centre","check_date":"2025-05-17","contact:facebook":"https://facebook.com/theartshousetrust","contact:instagram":"https://instagram.com/theartshousetrust","fee":"donation","name":"The Arts House Trust","old_name":"Wallace Arts Centre","opening_hours":"Mo,PH off; Tu-Fr 09:00-15:00; Sa-Su 08:00-16:00","phone":"+64 9 639 2010","website":"https://www.artshousetrust.co.nz","wheelchair":"yes"}},{"type":"node","id":1188811274,"lat":-36.93069,"lon":174.6890411,"tags":{"amenity":"toy_library","name":"West Auckland Toy Library"}},{"type":"node","id":1225167942,"lat":-36.5616477,"lon":174.3356586,"tags":{"name":"Gumdiggers camp","source":"LINZ","tourism":"attraction"}},{"type":"node","id":1225168001,"lat":-36.6676337,"lon":175.5649374,"tags":{"historic":"yes","name":"Historic shipyard","source":"LINZ","tourism":"attraction"}},{"type":"node","id":1225168118,"lat":-36.6677019,"lon":175.5708203,"tags":{"historic":"yes","name":"Old whaling station","source":"LINZ","tourism":"attraction"}},{"type":"node","id":1225168180,"lat":-36.5619214,"lon":174.3331243,"tags":{"name":"Gumdiggers camp","source":"LINZ","tourism":"attraction"}},{"type":"node","id":1225168249,"lat":-36.740625,"lon":175.5013217,"tags":{"LINZ:layer":"hist_ste_pnt","LINZ:source_version":"V16","attribution":"http://wiki.osm.org/wiki/Attribution#LINZ","historic":"yes","name":"Charles Ring discovered first gold in NZ 1852","source_ref":"http://www.linz.govt.nz/topography/topo-maps/","tourism":"attraction"}},{"type":"node","id":1225217483,"lat":-36.8073034,"lon":174.8476031,"tags":{"name":"Seafowl rookeries","source":"LINZ","tourism":"attraction"}},{"type":"node","id":1225270830,"lat":-36.7700519,"lon":174.8429573,"tags":{"name":"Seafowl rookeries","source":"LINZ","tourism":"attraction"}},{"type":"node","id":1225318225,"lat":-37.103085,"lon":175.5158444,"tags":{"name":"Traditional arrival point of Tainui canoe","source":"LINZ","tourism":"attraction"}},{"type":"node","id":1316019870,"lat":-36.3976094,"lon":174.6665057,"tags":{"addr:city":"Warkworth","addr:housenumber":"2","addr:postcode":"0910","addr:street":"Baxter Street","alt_name":"Warkworth Library","amenity":"library","internet_access":"wlan","internet_access:fee":"no","name":"Warkworth War Memorial Library","wheelchair":"yes"}},{"type":"node","id":1321206363,"lat":-36.953722,"lon":174.47422,"tags":{"name":"West Coast Gallery","tourism":"attraction","wikidata":"Q124077184"}},{"type":"node","id":1417628234,"lat":-36.856402,"lon":174.7634886,"tags":{"fixme":"there's ostensibly a plaque somewhere here","name":"Auckland's Steepest Street","tourism":"attraction"}},{"type":"node","id":1484417975,"lat":-36.8818604,"lon":174.7753275,"tags":{"addr:city":"Auckland","addr:housenumber":"195","addr:postcode":"1023","addr:street":"Manukau Road","addr:suburb":"Epsom","amenity":"library","contact:facebook":"https://www.facebook.com/epsomlibrary/","internet_access":"wlan","internet_access:fee":"no","name":"Epsom Library","opening_hours":"Mo-Th 09:30-18:00; Fr 09:30-17:30; Sa 10:00-16:00; Su 12:00-16:00","operator":"Auckland Libraries","operator:en":"Auckland Libraries","operator:mi":"Ngā Pātaka Kōrero o Tāmaki Makaurau","operator:type":"government","operator:wikidata":"Q4819503","phone":"+64 9 377 0209","ref:linz:address_id":"1141712","website":"https://www.aucklandlibraries.govt.nz/pages/library.aspx?library=9&libraryname=Epsom%20Library","wheelchair":"yes"}},{"type":"node","id":1589356606,"lat":-37.1326179,"lon":174.7971167,"tags":{"name":"Spookers","tourism":"attraction"}},{"type":"node","id":1609885028,"lat":-37.1339286,"lon":175.5403806,"tags":{"name":"Thames Historical Museum","tourism":"museum"}},{"type":"node","id":1609885032,"lat":-37.1349114,"lon":175.537649,"tags":{"name":"Thames School of Mines Museum","tourism":"museum"}},{"type":"node","id":1646721494,"lat":-36.8981826,"lon":174.8106544,"tags":{"amenity":"theatre","check_date":"2025-01-25","name":"Stables Theatre"}},{"type":"node","id":1685178608,"lat":-36.9381596,"lon":174.6555964,"tags":{"amenity":"theatre","check_date":"2025-12-09","name":"Titirangi Theatre"}},{"type":"node","id":1709832773,"lat":-36.833297,"lon":174.4242918,"tags":{"name":"Gannet colony","source":"LINZ","tourism":"attraction"}},{"type":"node","id":1827167988,"lat":-36.9083368,"lon":174.7566825,"tags":{"addr:housenumber":"546","addr:postcode":"1042","addr:street":"Mount Albert Road","addr:suburb":"Three Kings","amenity":"library","contact:facebook":"https://www.facebook.com/MtRoskillLib","internet_access":"wlan","internet_access:fee":"no","internet_access:ssid":"Library Free Wi-Fi","name":"Mount Roskill Library","not:name":"Three Kings Library","opening_hours":"Mo,Fr 09:00-17:30; Tu-Th 09:00-18:00; Sa-Su 09:00-16:00","operator":"Auckland Libraries","operator:en":"Auckland Libraries","operator:mi":"Ngā Pātaka Kōrero o Tāmaki Makaurau","operator:type":"government","operator:wikidata":"Q4819503","website":"https://www.aucklandlibraries.govt.nz/pages/library.aspx?library=28&libraryname=Mt%20Roskill%20Library","wheelchair":"yes","wikidata":"Q129553666"}},{"type":"node","id":1858557067,"lat":-36.9313465,"lon":174.5803092,"tags":{"addr:housenumber":"911","addr:postcode":"0612","addr:street":"West Coast Road","amenity":"library","name":"Waiatarua Community Library"}},{"type":"node","id":1941019928,"lat":-36.7880933,"lon":174.4670728,"tags":{"addr:housenumber":"181","addr:postcode":"0881","addr:street":"Taha Road","addr:suburb":"Waimauku","amenity":"kindergarten","name":"The Cottage Kindergarten","ref:linz:address_id":"1508108","source":"local_knowledge"}},{"type":"node","id":1941021233,"lat":-36.7802912,"lon":174.4782147,"tags":{"addr:housenumber":"42","addr:postcode":"0881","addr:street":"Taha Road","addr:suburb":"Waimauku","amenity":"kindergarten","name":"Waimauku Childcare Centre","ref:linz:address_id":"1506036","source":"local_knowledge"}},{"type":"node","id":1956070027,"lat":-36.6763808,"lon":174.4509838,"tags":{"addr:city":"Helensville","addr:housenumber":"49","addr:postcode":"0800","addr:street":"Commercial Road","addr:suburb":"Helensville","amenity":"library","internet_access":"wlan","name":"Helensville Library","operator":"Auckland Libraries","operator:type":"government","ref:linz:address_id":"1521100","source":"local_knowledge","wikidata":"Q131269986"}},{"type":"node","id":2022664006,"lat":-36.8915158,"lon":174.6420663,"tags":{"amenity":"kindergarten","name":"Sunnyvale Kindergarten"}},{"type":"node","id":2098925701,"lat":-36.8597362,"lon":174.7542533,"tags":{"amenity":"theatre","name":"Old Folks Ass."}},{"type":"node","id":2132032424,"lat":-36.3975824,"lon":174.6533307,"tags":{"amenity":"kindergarten","name":"Mahurangi Kindrgarten"}},{"type":"node","id":2542919946,"lat":-36.9697481,"lon":174.7988684,"tags":{"addr:postcode":"2022","addr:street":"Bader Drive","addr:suburb":"Māngere","amenity":"library","name":"Mangere Town Centre Library","operator":"Auckland Libraries","operator:en":"Auckland Libraries","operator:mi":"Ngā Pātaka Kōrero o Tāmaki Makaurau","operator:type":"government","operator:wikidata":"Q4819503","wikidata":"Q100763291"}},{"type":"node","id":2553914651,"lat":-36.9949246,"lon":174.8814285,"tags":{"attraction":"amusement_ride","name":"Power Surge","tourism":"attraction"}},{"type":"node","id":2626607489,"lat":-36.7919846,"lon":174.997187,"tags":{"craft":"winery","name":"Jurassic Ridge Vineyard","tourism":"attraction"}},{"type":"node","id":2679968383,"lat":-36.7369621,"lon":175.5040597,"tags":{"name":"Driving Creek Railway","tourism":"attraction","website":"https://drivingcreek.nz/activities/driving-creek-railway-tours/"}},{"type":"node","id":2789395238,"lat":-36.620426,"lon":174.7179977,"tags":{"name":"Whangaparaoa Narrow Gauge Railway","tourism":"attraction"}},{"type":"node","id":2942780456,"lat":-36.8578236,"lon":174.7579006,"tags":{"fee":"no","name":"Artspace","tourism":"gallery","website":"https://artspace-aotearoa.nz/","wikidata":"Q65121970"}},{"type":"node","id":3013702640,"lat":-36.8943316,"lon":174.9334456,"tags":{"addr:city":"Auckland","addr:housenumber":"25","addr:postcode":"2014","addr:street":"Uxbridge Road","addr:suburb":"Mellons Bay","alt_name":"Howick Community Library","amenity":"library","name":"Howick Library","operator":"Auckland Libraries","operator:en":"Auckland Libraries","operator:mi":"Ngā Pātaka Kōrero o Tāmaki Makaurau","operator:type":"government","operator:wikidata":"Q4819503","ref:linz:address_id":"1263013"}},{"type":"node","id":3099827197,"lat":-36.8643153,"lon":174.6026611,"tags":{"addr:city":"Auckland","addr:housenumber":"474","addr:postcode":"0602","addr:street":"Swanson Road","addr:suburb":"Rānui","amenity":"community_centre","internet_access":"wlan","name":"Ranui Community Centre","operator":"Ranui Community Centre Society","ref:linz:address_id":"964828"}},{"type":"node","id":3309329209,"lat":-36.9148262,"lon":174.8420883,"tags":{"amenity":"cinema","brand":"Hoyts","brand:wikidata":"Q5922976","brand:wikipedia":"en:Hoyts","check_date":"2024-10-11","level":"1","name":"Hoyts Cinemas"}},{"type":"node","id":3335801640,"lat":-36.7810409,"lon":175.0069197,"tags":{"name":"Waiheke Art Gallery","name:en":"Waiheke Art Gallery","name:mi":"Te Whare Taonga o Waiheke","tourism":"gallery","website":"https://waihekeartgallery.org.nz"}},{"type":"node","id":3335801643,"lat":-36.7811757,"lon":175.0068521,"tags":{"name":"Waiheke Musical Museum","old_name":"Whittakers Music Museum","tourism":"museum","website":"https://musicalmuseum.org/"}},{"type":"node","id":3364614104,"lat":-36.7803313,"lon":174.6569244,"tags":{"name":"Old Post Office Museum","tourism":"museum"}},{"type":"node","id":3397509381,"lat":-36.4211395,"lon":174.7227555,"tags":{"addr:city":"Snells Beach","addr:housenumber":"21","addr:postcode":"0920","addr:street":"Hamatana Road","addr:suburb":"Snells Beach","amenity":"library","name":"Mahurangi East Library","ref:linz:address_id":"1498183"}},{"type":"node","id":3494707510,"lat":-36.7621847,"lon":174.5830364,"tags":{"amenity":"school","name":"Riverhead Montessori School","pedagogy":"montessori"}},{"type":"node","id":3647179834,"lat":-36.9542034,"lon":174.8476577,"tags":{"addr:housenumber":"673","addr:postcode":"1062","addr:street":"Great South Road","amenity":"kindergarten","name":"Saint Mary's Pre School"}},{"type":"node","id":3663924342,"lat":-36.8966367,"lon":174.9451167,"tags":{"amenity":"kindergarten","name":"Cockle Bay Kindergarten"}},{"type":"node","id":3663924345,"lat":-36.8949109,"lon":174.9426507,"tags":{"amenity":"theatre","name":"Howick Childrens and Youth Theatre"}},{"type":"node","id":3736722744,"lat":-37.0340162,"lon":174.8670672,"tags":{"addr:city":"Clendon, Weymouth","addr:housenumber":"17","addr:postcode":"2103","addr:street":"Palmers Road","amenity":"library","name":"Te Matariki Clendon Library","name:en":"Te Matariki Clendon Library","name:mi":"Te Pātaka Kōrero o Waimāhia","wikidata":"Q100759683"}},{"type":"node","id":3787131349,"lat":-37.2756322,"lon":175.4900934,"tags":{"amenity":"library","name":"Library"}},{"type":"node","id":3800529871,"lat":-36.9390076,"lon":174.6555569,"tags":{"addr:housenumber":"500","addr:postcode":"0604","addr:street":"South Titirangi Road","addr:suburb":"Titirangi","amenity":"library","name":"Titirangi Library","name:en":"Titirangi Library","name:mi":"Te Pātaka Kōrero o Titirangi","opening_hours":"Mo-We 09:00-18:00; Th 09:00-19:00; Fr 09:00-18:00; Sa 10:00-16:00","operator":"Auckland Libraries","operator:en":"Auckland Libraries","operator:mi":"Ngā Pātaka Kōrero o Tāmaki Makaurau","operator:type":"government","operator:wikidata":"Q4819503"}},{"type":"node","id":3838515934,"lat":-36.8536327,"lon":174.7628144,"tags":{"addr:housename":"Greys Ave Carpark","addr:street":"Greys Avenue","addr:suburb":"Auckland Central","amenity":"theatre","capacity":"140","hearing_loop":"no","name":"Basement Theatre","website":"https://basementtheatre.co.nz","wheelchair":"limited","wikidata":"Q108083964"}},{"type":"node","id":3891362222,"lat":-36.9071129,"lon":174.6872341,"tags":{"amenity":"cinema","brand":"Reading Cinemas","brand:wikidata":"Q43898773","level":"1","name":"Reading Cinemas"}},{"type":"node","id":4033984044,"lat":-36.8835705,"lon":174.7681836,"tags":{"addr:housenumber":"74","addr:postcode":"1023","addr:street":"Epsom Avenue","amenity":"library","name":"Sylvia Ashton Warner Library"}},{"type":"node","id":4107598708,"lat":-36.8515466,"lon":174.7652516,"tags":{"amenity":"cinema","contact:facebook":"https://facebook.com/academycinemas","contact:instagram":"http://instagram.com/academycinemas","contact:twitter":"http://twitter.com/academycinemas","email":"cinema@academycinemas.co.nz","name":"Academy Cinemas","start_date":"1982","website":"https://www.academycinemas.co.nz/","wikidata":"Q37177853"}},{"type":"node","id":4167032389,"lat":-36.8944993,"lon":174.9303527,"tags":{"addr:city":"Auckland","addr:housenumber":"4/2","addr:street":"Fencible Drive","amenity":"cinema","name":"Monterey Cinemas","phone":"+64 9 532 7034","website":"http://www.montereycinemas.co.nz/"}},{"type":"node","id":4192807796,"lat":-36.9058667,"lon":174.6743794,"tags":{"amenity":"kindergarten","education":"kindergarten","name":"Grace Community Pre School"}},{"type":"node","id":4211571954,"lat":-36.6345978,"lon":175.4763498,"tags":{"addr:hamlet":"Colville","addr:housenumber":"2311","addr:street":"Colville Road","amenity":"library","internet_access":"yes","internet_access:fee":"donation","name":"Colville Social Service Collective","opening_hours":"Mo-We, Fr 09:00-15:00","phone":"+64 7 866 6920","ref:linz:address_id":"710538","shop":"second_hand"}},{"type":"node","id":4211583130,"lat":-36.6347255,"lon":175.4764483,"tags":{"name":"Ladybug Gallery","tourism":"gallery"}},{"type":"node","id":4211946191,"lat":-36.7366072,"lon":175.5039769,"tags":{"name":"Gallery","tourism":"attraction"}},{"type":"node","id":4225089501,"lat":-36.5881949,"lon":174.4864299,"tags":{"addr:hamlet":"Kaukapakapa","addr:housenumber":"1481","addr:street":"Kaipara Coast Highway","name":"Kaipara Coast Plant Centre & Sculpture Gardens","phone":"+64 9 420 5655","tourism":"attraction","website":"https://www.kaiparacoast.co.nz/"}},{"type":"node","id":4227668680,"lat":-36.9452531,"lon":174.9562884,"tags":{"amenity":"kindergarten","check_date":"2024-08-20","name":"Whitford Early Learning Centre"}},{"type":"node","id":4281458058,"lat":-36.8766968,"lon":174.767242,"tags":{"name":"Sundial","tourism":"attraction"}},{"type":"node","id":4295662990,"lat":-36.8974131,"lon":174.8943025,"tags":{"addr:street":"Butley Drive","name":"Edwin Roberts Norfolk Island Pines","tourism":"attraction"}},{"type":"node","id":4321025189,"lat":-36.881834,"lon":174.6161931,"tags":{"amenity":"kindergarten","name":"Sturges Road Kindergarten","website":"http://aka.govt.nz"}},{"type":"node","id":4326087193,"lat":-36.8475168,"lon":174.7654164,"tags":{"amenity":"college","name":"New Zealand Institute of Studies","website":"https://nzios.ac.nz/"}},{"type":"node","id":4463977495,"lat":-36.8396323,"lon":174.754676,"tags":{"amenity":"cinema","description":"Outdoor cinema running occasionally in the summer months","name":"Silo Cinema"}},{"type":"node","id":4515765891,"lat":-36.7571945,"lon":175.1338575,"tags":{"name":"Mussel Rock","name:en":"Mussel Rock","tourism":"attraction"}},{"type":"node","id":4559528500,"lat":-36.8257606,"lon":174.6445214,"tags":{"addr:street":"Chapman Road","addr:suburb":"Te Atatu","amenity":"community_centre","club":"sailing","name":"Taikata Sailing Club"}},{"type":"node","id":4576622990,"lat":-36.485707,"lon":175.4115291,"tags":{"name":"Poley Bay","name:en":"Poley Bay","tourism":"attraction"}},{"type":"node","id":4583601131,"lat":-37.1984966,"lon":174.9041896,"tags":{"amenity":"cinema","contact:facebook":"cinema3pukekohe","name":"Cinema 3","opening_hours":"Mo off","phone":"+64 9 237 0216","screen":"4","website":"https://www.pukekohecinemas.co.nz"}},{"type":"node","id":4640488432,"lat":-36.8289127,"lon":174.8121671,"tags":{"historic":"cannon","name":"South Battery","tourism":"attraction"}},{"type":"node","id":4666691449,"lat":-36.9504181,"lon":175.1706159,"tags":{"amenity":"library","name":"Kawakawa Bay Library and Health Centre"}},{"type":"node","id":4666691453,"lat":-36.9501713,"lon":175.1704714,"tags":{"amenity":"community_centre","name":"Kawakawa Bay Community Hall"}},{"type":"node","id":4666691454,"lat":-36.950032,"lon":175.1704083,"tags":{"amenity":"kindergarten","name":"Kawakawa Bay Kindergarten"}},{"type":"node","id":4714978290,"lat":-36.8425248,"lon":174.7568289,"tags":{"addr:housenumber":"10","addr:postcode":"1010","addr:street":"Madden Street","addr:suburb":"Auckland Central","amenity":"college","email":"info@mediadesignschool.com","name":"Media Design School","name:en":"Media Design School","opening_hours":"Mo-Fr 08:00-17:00; Sa-Su 10:00-17:00","phone":"+64 9 303 0402","website":"https://www.mediadesignschool.com/","wikidata":"Q6805479"}},{"type":"node","id":4717617667,"lat":-36.7232865,"lon":174.7054457,"tags":{"amenity":"kindergarten","name":"Discoveries Educare"}},{"type":"node","id":4741045947,"lat":-37.2601018,"lon":174.9456925,"tags":{"addr:city":"Tuakau","addr:housenumber":"72","addr:postcode":"2121","addr:street":"George Street","addr:suburb":"Tuakau","amenity":"library","name":"Tuakau Library","note":"Close for renovation https://www.waikatodistrict.govt.nz/services-facilities/libraries/library-locations-and-opening-hours/tuakau-library/tuakau-library-refurbishment-project","ref:linz:address_id":"1276862"}},{"type":"node","id":4741045959,"lat":-37.2574183,"lon":174.9478821,"tags":{"name":"Tuakau and Districts Museum","tourism":"museum"}},{"type":"node","id":4741168013,"lat":-37.0613041,"lon":174.9480672,"tags":{"amenity":"kindergarten","name":"Discoveries Educare"}},{"type":"node","id":4824355006,"lat":-36.7811969,"lon":174.5705696,"tags":{"addr:housenumber":"489","addr:street":"State Highway 16","addr:suburb":"Kumeū","amenity":"kindergarten","name":"Heart And Soul Early Learning Centre","ref:linz:address_id":"2034000"}},{"type":"node","id":4824355009,"lat":-36.6731411,"lon":174.4407882,"tags":{"amenity":"kindergarten","name":"Reach Forward"}},{"type":"node","id":4848752622,"lat":-36.9198987,"lon":174.6982579,"tags":{"addr:housenumber":"34","addr:postcode":"0600","addr:street":"Bolton Street","amenity":"community_centre","email":"stdominics@xtra.co.nz","internet_access":"wlan","name":"St.Dominics Parish Center","name:en":"St.Dominics Parish Center","opening_hours":"Mo-Su 07:00-22:00","phone":"+64 9 626 6207","website":"https://www.blockhousebaycatholic.org.nz/"}},{"type":"node","id":4869605945,"lat":-36.855256,"lon":174.631908,"tags":{"amenity":"kindergarten","name":"My Kindy"}},{"type":"node","id":4918118022,"lat":-36.8999597,"lon":174.80529,"tags":{"name":"Break and Escape","name:en":"Break and Escape","tourism":"attraction"}},{"type":"node","id":4919965722,"lat":-37.0276008,"lon":175.5505641,"tags":{"name":"Waiomu Kauri Grove","name:en":"Waiomu Kauri Grove","tourism":"attraction"}},{"type":"node","id":4936606670,"lat":-36.9172599,"lon":174.7081376,"tags":{"amenity":"kindergarten","education":"kindergarten","name":"Lil Champs Early Learning Centre"}},{"type":"node","id":4936606684,"lat":-36.9124419,"lon":174.7163678,"tags":{"amenity":"kindergarten","education":"kindergarten","name":"The Wishing Tree Early Learning Centre"}},{"type":"node","id":4950081421,"lat":-36.9608001,"lon":174.8721738,"tags":{"name":"Ōtara Markets","name:en":"Ōtara Markets","opening_hours":"Sa 06:00-12:00","tourism":"attraction","website":"https://otaramarkets.co.nz","wikidata":"Q123398305"}},{"type":"node","id":4956180992,"lat":-36.92213,"lon":174.713549,"tags":{"amenity":"kindergarten","education":"kindergarten","name":"Rising Stars Childcare Centre"}},{"type":"node","id":4959265348,"lat":-36.848538,"lon":174.5442307,"tags":{"amenity":"kindergarten","name":"Waitakere Kindergarten"}},{"type":"node","id":4989734868,"lat":-36.8767332,"lon":174.8251504,"tags":{"amenity":"library","name":"Raye Freedman Library"}},{"type":"node","id":4994484211,"lat":-36.8485766,"lon":174.8322843,"tags":{"amenity":"cinema","name":"Berkeley Cinemas"}},{"type":"node","id":5031773082,"lat":-36.904849,"lon":174.8040455,"tags":{"amenity":"kindergarten","name":"Peacocks Early Learning Centre"}},{"type":"node","id":5044120840,"lat":-37.2037467,"lon":174.8161423,"tags":{"name":"Work","name:en":"Work","tourism":"attraction"}},{"type":"node","id":5047602333,"lat":-36.7602561,"lon":174.739301,"tags":{"addr:housenumber":"146","addr:street":"Sunnynook Road","amenity":"kindergarten","name":"Little People","phone":"+64 9 410 0465"}},{"type":"node","id":5047602353,"lat":-36.7533723,"lon":174.7326806,"tags":{"amenity":"kindergarten","name":"North Harbour Pre School"}},{"type":"node","id":5057312355,"lat":-36.7141262,"lon":174.7431834,"tags":{"addr:housenumber":"41","addr:postcode":"0630","addr:street":"Bute Road","amenity":"kindergarten","brand":"Lollipops Educare","brand:wikidata":"Q116824919","name":"Lollipops","phone":"+64 9 478 8995","website":"https://EvolveEducation.co.nz"}},{"type":"node","id":5057312530,"lat":-36.7177471,"lon":174.7466523,"tags":{"amenity":"kindergarten","name":"Discoveries Educare"}},{"type":"node","id":5062971823,"lat":-37.1984291,"lon":174.9087676,"tags":{"name":"Counties Manukau","name:en":"Counties Manukau","tourism":"attraction"}},{"type":"node","id":5080682148,"lat":-36.8796303,"lon":174.7340043,"tags":{"addr:housenumber":"55","addr:postcode":"1025","addr:street":"Sainsbury Road","amenity":"kindergarten","education":"kindergarten","name":"Active Explorers","phone":"+64 9 815 8586","website":"https://EvolveEducation.co.nz"}},{"type":"node","id":5083341133,"lat":-36.8766964,"lon":174.8250945,"tags":{"amenity":"community_centre","community_centre:for":"jewish","name":"Chabad House","name:en":"Chabad House","name:he":"בית חב\"ד","website":"https://chabad.nz/"}},{"type":"node","id":5116574075,"lat":-36.8401499,"lon":174.6551916,"tags":{"amenity":"kindergarten","name":"Te Atatu Kindergarten"}},{"type":"node","id":5116574446,"lat":-36.8446207,"lon":174.6521044,"tags":{"amenity":"kindergarten","name":"Discoveries Educare"}},{"type":"node","id":5132717322,"lat":-36.627907,"lon":174.7331124,"tags":{"name":"Johnny Danger Lager","tourism":"attraction"}},{"type":"node","id":5151218371,"lat":-36.9672025,"lon":174.8201937,"tags":{"amenity":"kindergarten","name":"Good Seeds Early Childhood Education Centre"}},{"type":"node","id":5151218519,"lat":-36.9604447,"lon":174.7847758,"tags":{"amenity":"kindergarten","name":"Pacific Islands Childcare Centre"}},{"type":"node","id":5153036396,"lat":-36.6026419,"lon":174.6776408,"tags":{"amenity":"community_centre","check_date":"2023-03-28","name":"Stoney Homestead"}},{"type":"node","id":5167028348,"lat":-36.9713899,"lon":174.8196618,"tags":{"amenity":"kindergarten","name":"Blossoms Educare"}},{"type":"node","id":5177862277,"lat":-36.899304,"lon":174.9041542,"tags":{"amenity":"kindergarten","name":"Discoveries Educare"}},{"type":"node","id":5177862282,"lat":-36.8999288,"lon":174.9041113,"tags":{"amenity":"community_centre","name":"Highland Park Community Centre"}},{"type":"node","id":5222912823,"lat":-36.853712,"lon":174.763083,"tags":{"addr:city":"Auckland","addr:housenumber":"321","addr:street":"Queen Street","amenity":"theatre","capacity":"120","check_date":"2024-04-18","email":"info@comedy.co.nz","name":"The Classic Comedy Club","phone":"+64 9 373 4321","website":"http://www.comedy.co.nz","wikidata":"Q37177992"}},{"type":"node","id":5235751679,"lat":-36.9383566,"lon":174.6551836,"tags":{"amenity":"arts_centre","check_date":"2025-12-09","name":"Te Uru Waitakere Contemporary Gallery","ref:nz:heritage":"9823","wikidata":"Q28180758"}},{"type":"node","id":5291156634,"lat":-37.0492293,"lon":174.9310648,"tags":{"addr:housenumber":"20","addr:street":"Walters Road","amenity":"kindergarten","name":"Go Bananas"}},{"type":"node","id":5304275254,"lat":-37.0470624,"lon":174.911132,"tags":{"amenity":"kindergarten","name":"Conifer Grove Kindergarten"}},{"type":"node","id":5304275255,"lat":-37.0470019,"lon":174.910727,"tags":{"addr:housenumber":"64a","addr:postcode":"2112","addr:street":"Walter Strevens Drive","amenity":"kindergarten","name":"Lollipops","phone":"+64 9 266 5312","website":"https://EvolveEducation.co.nz"}},{"type":"node","id":5314193253,"lat":-36.8020548,"lon":175.085706,"tags":{"addr:housenumber":"150","addr:street":"Trig Hill Road","addr:suburb":"Onetangi","name":"EcoZip Adventures","ref:linz:address_id":"1290249","tourism":"attraction","website":"https://ecozipadventures.co.nz"}},{"type":"node","id":5314339325,"lat":-36.9041386,"lon":174.9256562,"tags":{"amenity":"kindergarten","name":"Kip McGrath Education Centre"}},{"type":"node","id":5318301661,"lat":-36.9219507,"lon":174.7015013,"tags":{"addr:housenumber":"522","addr:postcode":"0600","addr:street":"Blockhouse Bay Road","addr:suburb":"Blockhouse Bay","amenity":"dancing_school","education":"dancing_school","name":"Chameleon Dance And Fitness Studio","ref:linz:address_id":"1036933","website":"https://www.chameleonstudios.co.nz/"}},{"type":"node","id":5321158181,"lat":-36.9115271,"lon":174.6797888,"tags":{"addr:housenumber":"10","addr:street":"Ambrico Place","addr:suburb":"New Lynn","amenity":"kindergarten","education":"kindergarten","name":"New Lynn Kindergarten","phone":"+64 9 827 1627","ref:linz:address_id":"1521926"}},{"type":"node","id":5321189159,"lat":-36.9087544,"lon":174.6781279,"tags":{"addr:city":"Auckland","addr:housenumber":"3131","addr:postcode":"0600","addr:street":"Great North Road","addr:suburb":"New Lynn","amenity":"community_centre","community_centre":"cultural_centre","name":"Pan African Community Centre","ref:linz:address_id":"1662168","wikidata":"Q122904554"}},{"type":"node","id":5340052889,"lat":-36.9368527,"lon":174.8749731,"tags":{"name":"Swirling Bull","tourism":"attraction"}},{"type":"node","id":5369795575,"lat":-36.9920355,"lon":175.0370087,"tags":{"amenity":"kindergarten","name":"Clevedon Kidz"}},{"type":"node","id":5369824521,"lat":-36.8074896,"lon":175.087193,"tags":{"craft":"winery","name":"Peacock Sky","tourism":"attraction","website":"https://www.peacocksky.co.nz/"}},{"type":"node","id":5406621052,"lat":-37.1368177,"lon":175.5413908,"tags":{"amenity":"community_centre","name":"Thames Community Link"}},{"type":"node","id":5415651481,"lat":-36.8888475,"lon":174.722937,"tags":{"addr:city":"Auckland","addr:housenumber":"74","addr:postcode":"1025","addr:street":"Mount Albert Road","addr:suburb":"Mount Albert","amenity":"kindergarten","name":"Merry Land","preschool":"yes","ref:linz:address_id":"1059542"}},{"type":"node","id":5415795923,"lat":-36.947426,"lon":174.6641748,"tags":{"addr:city":"Auckland","addr:housenumber":"69","addr:postcode":"0604","addr:street":"Otitori Bay Road","addr:suburb":"Titirangi","email":"mccahon@mccahonhouse.org.nz","museum":"local,art","name":"McCahon House","opening_hours":"We-Su 13:00-16:00","operator":"McCahon House Trust","operator:type":"trust","ref:linz:address_id":"1009552","ref:nz:heritage":"5259","source":"local knowledge;https://mccahonhouse.org.nz","tourism":"museum","website":"https://mccahonhouse.org.nz./","wheelchair":"no","wikidata":"Q79302486"}},{"type":"node","id":5417509863,"lat":-36.9066812,"lon":174.7321817,"tags":{"addr:housenumber":"2/36","addr:street":"Stoddard Road","addr:suburb":"Wesley","amenity":"community_centre","mobile":"+64 22 354 8741","name":"AIT Musallah ( Masjid)","ref:linz:address_id":"1864458","website":"https://ait.org.nz/"}},{"type":"node","id":5419463495,"lat":-36.8859576,"lon":174.7437691,"tags":{"addr:city":"Auckland","addr:housenumber":"227","addr:postcode":"1024","addr:street":"Balmoral Road","addr:suburb":"Mount Eden","amenity":"kindergarten","name":"Smart Kids Educare","ref:linz:address_id":"1097746"}},{"type":"node","id":5419549974,"lat":-36.8748375,"lon":174.7382065,"tags":{"addr:city":"Auckland","addr:housenumber":"36","addr:postcode":"1024","addr:street":"Rossmay Terrace","addr:suburb":"Mount Eden","amenity":"dancing_school","dance:style":"ballet","name":"Phillipa Campbell School Of Ballet","ref:linz:address_id":"1095899","website":"http://www.philippacampbellschoolofballet.co.nz/"}},{"type":"node","id":5455537160,"lat":-36.8806132,"lon":174.814952,"tags":{"addr:city":"Auckland","addr:housenumber":"631","addr:postcode":"1050","addr:street":"Remuera Road","addr:suburb":"Remuera","amenity":"music_school","name":"iDrums","ref:linz:address_id":"1171644","website":"https://idrums.co.nz/"}},{"type":"node","id":5460381021,"lat":-36.6740079,"lon":174.6386395,"tags":{"addr:street":"Postman Road","amenity":"community_centre","name":"The Dairy Flat Community Hall","operator":"Dairy Flat Live Music Club","website":"https://dairyflatlive.com/"}},{"type":"node","id":5466096705,"lat":-36.8949446,"lon":174.8080011,"tags":{"addr:housenumber":"3","addr:street":"Tecoma Street","addr:suburb":"Ellerslie","amenity":"kindergarten","name":"Shooting Stars Daycare","ref:linz:address_id":"1165947","website":"https://www.shootingstars.co.nz/"}},{"type":"node","id":5492544738,"lat":-36.9654235,"lon":174.8285125,"tags":{"addr:city":"Auckland","addr:housenumber":"7","addr:postcode":"2024","addr:street":"Hain Avenue","addr:suburb":"Māngere East","amenity":"community_centre","name":"ME Family Services - Manaaki Tangata","opening_hours":"Mo-Fr 09:00-17:00","operator":"MEFSC Inc","operator:type":"community","ref:linz:address_id":"2034755","website":"https://www.mefsc.org.nz/"}},{"type":"node","id":5492550767,"lat":-36.9633139,"lon":174.825666,"tags":{"addr:city":"Auckland","addr:housenumber":"18","addr:postcode":"2024","addr:street":"Ferguson Street","addr:suburb":"Māngere East","amenity":"community_centre","name":"ME Family Services","opening_hours":"Mo-Fr 08:00-16:30","operator":"MEFSC Inc","operator:type":"community","ref:linz:address_id":"1179962","website":"https://www.mefsc.org.nz/"}},{"type":"node","id":5499780466,"lat":-36.9901732,"lon":175.5717397,"tags":{"circumference":"9","height":"44","name":"Square Kauri","natural":"tree","tourism":"attraction","wikidata":"Q7582018"}},{"type":"node","id":5608603475,"lat":-37.2352864,"lon":175.5653628,"tags":{"addr:housenumber":"437","addr:street":"Hauraki Road","addr:suburb":"Turua","amenity":"kindergarten","name":"Milly's Educare","ref:linz:address_id":"1636447","website":"https://www.millys.org.nz/"}},{"type":"node","id":5608603783,"lat":-37.2413814,"lon":175.5688358,"tags":{"addr:housenumber":"12","addr:street":"Raratuna Street","addr:suburb":"Turua","amenity":"kindergarten","branch":"Tarua","name":"Playcentre","ref:linz:address_id":"722645","website":"https://www.playcentre.org.nz/centre/turua/"}},{"type":"node","id":5673478123,"lat":-36.6732605,"lon":174.6662096,"tags":{"name":"Equestrian Training","tourism":"attraction"}},{"type":"node","id":5698188823,"lat":-36.807111,"lon":175.5346402,"tags":{"addr:city":"Waiau","addr:housenumber":"330","addr:postcode":"3581","addr:street":"The 309 Road","alt_name":"Pig Sanctuary","name":"Stuart and the pigs","opening_hours":"24/7","tourism":"attraction"}},{"type":"node","id":5901402585,"lat":-36.7822248,"lon":174.724123,"tags":{"amenity":"music_school","name":"Music Education Centre"}},{"type":"node","id":5901710182,"lat":-36.7885086,"lon":174.7686094,"tags":{"amenity":"music_school","name":"Auckland Guitar School"}},{"type":"node","id":5965489797,"lat":-36.8811226,"lon":174.737592,"tags":{"amenity":"community_centre","name":"Gribblehirst Hub","website":"https://ghub.nz/"}},{"type":"node","id":5965489798,"lat":-36.8812195,"lon":174.7375817,"tags":{"amenity":"community_centre","name":"Auckland Central Community Shed","website":"https://www.aucklandcentralshed.org.nz/"}},{"type":"node","id":6070043015,"lat":-36.9069364,"lon":174.6835962,"tags":{"amenity":"language_school","education":"language_school","level":"1","name":"Dynaspeak - New Lynn Campus","phone":"+64 9 827 3612","phone:NZ":"0800 355 344","website":"https://www.dynaspeak.ac.nz/"}},{"type":"node","id":6091242715,"lat":-36.8937541,"lon":174.6969681,"tags":{"addr:housenumber":"1848","addr:street":"Great North Road","addr:suburb":"Avondale","amenity":"kindergarten","capacity":"50","contact:facebook":"https://www.facebook.com/EarlyExplorersChildcareCentre/","education":"kindergarten","email":"office@earlyexplorers.co.nz","name":"Early Explorers Childcare Centre","opening_hours":"Mo-Fr 07:00-18:00","phone":"+64 9 820 8980","website":"https://earlyexplorers.co.nz"}},{"type":"node","id":6094412088,"lat":-36.874873,"lon":174.7512141,"tags":{"addr:housenumber":"6/191","addr:street":"Dominion Road","amenity":"community_centre","government":"social_services","name":"Work & Income NZ (WINZ)","operator":"Ministry of Social Development","website":"https://www.workandincome.govt.nz/"}},{"type":"node","id":6157377478,"lat":-36.8676318,"lon":174.7275832,"tags":{"name":"Whare Tinei Ahi / Fire Station","name:en":"Fire Station","name:mi":"Whare Tinei Ahi","operator":"MOTAT","tourism":"museum","website":"https://motat.nz/exhibitions/firehouse/"}},{"type":"node","id":6163130986,"lat":-36.8383223,"lon":175.5527894,"tags":{"name":"Waiau Kauri Grove","name:de":"Kauri Bäume","name:en":"Waiau Kauri Grove","tourism":"attraction","wheelchair":"no"}},{"type":"node","id":6315306128,"lat":-36.9228519,"lon":174.7199321,"tags":{"addr:housenumber":"602","addr:postcode":"1042","addr:street":"Hillsborough Road","amenity":"kindergarten","education":"kindergarten","name":"Lollipops","phone":"+64 9 869 4054","website":"https://EvolveEducation.co.nz"}},{"type":"node","id":6363676507,"lat":-36.7968498,"lon":175.0467002,"tags":{"amenity":"arts_centre","check_date":"2023-12-30","name":"Catherine Mitchell Arts Centre"}},{"type":"node","id":6424463543,"lat":-36.6035697,"lon":175.5471132,"tags":{"amenity":"library","name":"Mussel Library"}},{"type":"node","id":6466332672,"lat":-36.8500413,"lon":174.7658897,"tags":{"amenity":"college","name":"ICL Graduate Business School","office":"educational_institution","website":"https://www.icl.ac.nz/","wheelchair":"yes"}},{"type":"node","id":6466339288,"lat":-36.8532609,"lon":174.7611799,"tags":{"amenity":"language_school","name":"Language Hub Ltd","website":"https://languagehub.co.nz"}},{"type":"node","id":6817060476,"lat":-37.1776893,"lon":175.2940834,"tags":{"name":"Miranda Farm Gallery","tourism":"gallery"}},{"type":"node","id":6832095849,"lat":-36.7818983,"lon":175.0091325,"tags":{"amenity":"community_centre","check_date":"2023-12-29","name":"Waiheke Citizens Advice Bureau","website":"https://www.cab.org.nz/location/cab-waiheke-island"}},{"type":"node","id":6832327623,"lat":-36.7810568,"lon":175.0070282,"tags":{"amenity":"cinema","name":"Waiheke Island Community Cinema","phone":"+64 9 372 7220","website":"https://www.waihekecinema.co.nz/"}},{"type":"node","id":6833677328,"lat":-36.8095932,"lon":175.0614985,"tags":{"description":"Olive Oil Press","name":"Allpress Olive Groves Tasting Room","tourism":"attraction","website":"https://www.allpressolivegroves.co.nz/pages/visit"}},{"type":"node","id":6914905969,"lat":-36.882481,"lon":174.999604,"tags":{"amenity":"toy_library","name":"Beachlands Toy Library"}},{"type":"node","id":6925262772,"lat":-36.8628465,"lon":174.8091382,"tags":{"amenity":"cinema","name":"Silky Otter","website":"https://www.silkyotter.co.nz/"}},{"type":"node","id":7005548145,"lat":-36.8997263,"lon":174.6522903,"tags":{"addr:housenumber":"4155","addr:postcode":"0602","addr:street":"Great North Road","amenity":"kindergarten","education":"kindergarten","name":"Best Start Glen Eden","opening_hours":"Mo-Fr 07:30-18:00","phone":"+64 9 971 2056","website":"https://best-start.org/centres/beststart-glen-eden"}},{"type":"node","id":7187282573,"lat":-36.3911203,"lon":174.6514403,"tags":{"addr:city":"Warkworth","addr:housenumber":"2","addr:postcode":"0981","addr:street":"State Highway 1","amenity":"arts_centre","description":"Workshop for Artists","name":"Kowhai Art & Craft","opening_hours":"Mo-Fr 09:00-14:00","website":"https://kac.nz/"}},{"type":"node","id":7314132716,"lat":-36.7197896,"lon":174.7234877,"tags":{"amenity":"kindergarten","name":"Lollipops Oteha Valley","preschool":"yes"}},{"type":"node","id":7317615836,"lat":-36.7979749,"lon":174.6825916,"tags":{"name":"Alan Tanner Reserve Look Out","operator":"Auckland City Council","source":"tree","tourism":"attraction"}},{"type":"node","id":7614252932,"lat":-36.8494902,"lon":174.7689578,"tags":{"amenity":"language_school","education":"language_school","language:en":"yes","name":"Languages International","website":"https://www.languages.ac.nz/"}},{"type":"node","id":7694647648,"lat":-36.8565763,"lon":174.7645115,"tags":{"amenity":"college","name":"Whitecliffe College","website":"https://www.whitecliffe.ac.nz/","wikidata":"Q60772018"}},{"type":"node","id":7822630038,"lat":-36.8517526,"lon":174.761968,"tags":{"amenity":"theatre","capacity":"2139","check_date":"2024-10-22","hearing_loop":"yes","is_in":"Aotea Centre","name":"Kiri Te Kanawa Theatre","name:etymology":"Dame Kiri Te Kanawa","name:etymology:wikidata":"Q380133","old_name":"ASB Theatre","operator":"Tātaki Auckland Unlimited","operator:type":"government","operator:wikidata":"Q55764471","start_date":"1990-09-09","website":"https://aucklandunlimited.com","wheelchair":"limited"}},{"type":"node","id":7827763883,"lat":-36.991769,"lon":174.8784124,"tags":{"amenity":"college","name":"Laidlaw College - Manukau Campus"}},{"type":"node","id":7827763884,"lat":-36.9916912,"lon":174.8786468,"tags":{"amenity":"college","name":"Auckland Edinburgh College"}},{"type":"node","id":7827833762,"lat":-36.8726269,"lon":174.7760952,"tags":{"amenity":"cinema","brand":"Event Cinemas","brand:wikidata":"Q5416698","brand:wikipedia":"en:Event Cinemas","level":"4","name":"Event Cinemas"}},{"type":"node","id":7924458817,"lat":-36.8597072,"lon":174.644892,"tags":{"amenity":"kindergarten","name":"Flanshaw Infant And Toddler Centre"}},{"type":"node","id":7987631060,"lat":-36.7970668,"lon":174.7521099,"tags":{"addr:city":"Auckland","addr:housenumber":"88","addr:postcode":"0627","addr:street":"College Road","addr:suburb":"Northcote","amenity":"college","name":"Transformation Academy","note":"Unclear if this academy is making use of the entire old college site","phone:NZ":"0800 001 128","website":"https://www.transformationacademy.org.nz/"}},{"type":"node","id":7993821361,"lat":-37.0625677,"lon":174.9440458,"tags":{"amenity":"community_centre","name":"Punjab Community Centre"}},{"type":"node","id":8042972226,"lat":-36.9032614,"lon":174.6579543,"tags":{"amenity":"kindergarten","education":"kindergarten","name":"Imagination Station"}},{"type":"node","id":8066825487,"lat":-36.8516199,"lon":174.7624868,"tags":{"amenity":"theatre","capacity":"186","hearing_loop":"yes","is_in":"Aotea Centre","name":"Herald Theatre","name:en":"Herald Theatre","name:mi":"Te Whare Tapere o Herald","operator":"Tātaki Auckland Unlimited","operator:type":"government","operator:wikidata":"Q55764471","start_date":"1990-09-09","website":"https://aucklandunlimited.com","wheelchair":"yes"}},{"type":"node","id":8086721926,"lat":-36.8882069,"lon":174.7980018,"tags":{"addr:city":"Auckland","addr:housenumber":"105","addr:postcode":"1050","addr:street":"Green Lane East","addr:suburb":"Remuera","amenity":"music_school","contact:website":"https://www.thebeatschool.co.nz/","name":"The BeatSchool","ref:linz:address_id":"2330206"}},{"type":"node","id":8095867448,"lat":-36.8556793,"lon":174.7898494,"tags":{"amenity":"kindergarten","name":"Parnell Early Childhood Centre","operator":"Parnell Trust","website":"https://www.parnell.org.nz/early-childhood/parnell-early-childhood-centre"}},{"type":"node","id":8298904414,"lat":-36.827357,"lon":174.81298,"tags":{"access":"yes","historic":"ruins","name":"Idler Pully Wheel","ruins":"military","tourism":"attraction"}},{"type":"node","id":8298954432,"lat":-36.8289457,"lon":174.8116578,"tags":{"access":"yes","historic":"ruins","name":"Engine Room","ruins":"military","tourism":"attraction"}},{"type":"node","id":8322342315,"lat":-36.868545,"lon":174.7771999,"tags":{"addr:housenumber":"19A","addr:street":"Osborne Street","name":"Art Select Gallery","operator":"Art Select Gallery","tourism":"gallery","website":"https://www.artselect.gallery/"}},{"type":"node","id":8347192637,"lat":-36.8650308,"lon":174.7798978,"tags":{"addr:housenumber":"8","addr:street":"Railway Street","name":"Railway Street Studios","opening_hours":"We-Sa 10:00-16:00","phone":"+64 21 419 292","tourism":"gallery","website":"https://www.railwaystreetstudios.co.nz/"}},{"type":"node","id":8369698098,"lat":-36.8694932,"lon":174.7784817,"tags":{"amenity":"music_school","name":"Maple's Music"}},{"type":"node","id":8373364793,"lat":-36.8685812,"lon":174.7771897,"tags":{"addr:street":"Osborne Street","name":"The Poi Room","opening_hours":"Mo-Fr 09:30-17:30; Sa 09:30-17:00; Su 10:00-16:00","phone":"+64 9 520 0399","tourism":"gallery","website":"https://thepoiroom.co.nz"}},{"type":"node","id":8406716650,"lat":-36.8653056,"lon":174.7593693,"tags":{"amenity":"kindergarten","name":"Lollipops","website":"https://www.lollipopseducare.co.nz/locations/newton-road/"}},{"type":"node","id":8491063155,"lat":-36.8610164,"lon":174.7534554,"tags":{"addr:city":"Auckland","addr:housenumber":"21","addr:postcode":"1010","addr:street":"Newton Road","amenity":"library","name":"Auckland Library of Tools","opening_hours":"Tu 17:30-19:30; Th 17:30-19:30; Sa 10:30-13:30","website":"https://www.aucklandlibraryoftools.com"}},{"type":"node","id":8540159760,"lat":-37.129951,"lon":174.796343,"tags":{"name":"Asylum Paintball","tourism":"attraction"}},{"type":"node","id":8561548917,"lat":-36.8706,"lon":174.8458561,"tags":{"addr:housenumber":"277","addr:postcode":"1071","addr:street":"Saint Johns Road","email":"pinklemonzing@gmail.com","name":"Freerange Art Gallery","opening_hours":"We-Su 12:00-17:00","tourism":"attraction"}},{"type":"node","id":8592325959,"lat":-36.8276575,"lon":174.812552,"tags":{"historic":"cannon","name":"Summit Battery","tourism":"attraction"}},{"type":"node","id":8592325960,"lat":-36.8261492,"lon":174.812467,"tags":{"historic":"cannon","name":"North Battery","tourism":"attraction"}},{"type":"node","id":8619402910,"lat":-36.8468996,"lon":174.7431644,"tags":{"addr:housenumber":"16","addr:street":"Jervois Road","amenity":"library","name":"Leys Institute Little Library","opening_hours":"Mo-Fr 09:00-18:00; Sa 09:00-16:00","operator":"Auckland Libraries","operator:en":"Auckland Libraries","operator:mi":"Ngā Pātaka Kōrero o Tāmaki Makaurau","operator:type":"government","operator:wikidata":"Q4819503","website":"https://www.aucklandlibraries.govt.nz/pages/library.aspx?library=70&libraryname=Leys%20Institute%20Little%20Library"}},{"type":"node","id":8758735744,"lat":-36.8511131,"lon":174.7659077,"tags":{"branch":"Auckland City","contact:facebook":"https://facebook.com/gowlangsfordgallery/","contact:instagram":"https://instagram.com/gowlangsford","email":"info@gowlangsfordgallery.co.nz","name":"Gow Langsford Gallery","opening_hours":"Mo-Fr 10:00-17:00; Sa 10:00-16:00; Su,PH off","phone":"+64 9 303 9395","tourism":"gallery","website":"https://www.gowlangsfordgallery.co.nz/","wikidata":"Q5589975"}},{"type":"node","id":8813522508,"lat":-36.8490069,"lon":174.859432,"tags":{"name":"Rock Pools","tourism":"attraction"}},{"type":"node","id":8867124256,"lat":-36.8254149,"lon":174.8124295,"tags":{"historic":"cannon","name":"Cheltenham Battery","tourism":"attraction"}},{"type":"node","id":8987443937,"lat":-36.8624515,"lon":174.7207047,"tags":{"name":"South East Asia","tourism":"attraction"}},{"type":"node","id":8987443938,"lat":-36.8637572,"lon":174.7223393,"tags":{"name":"Asia","tourism":"attraction"}},{"type":"node","id":8987443939,"lat":-36.863898,"lon":174.7206999,"tags":{"name":"Africa","tourism":"attraction"}},{"type":"node","id":8987443940,"lat":-36.8618712,"lon":174.7219785,"tags":{"name":"Te Wao Nui (Aotearoa)","name:mi":"Te Wao Nui","tourism":"attraction"}},{"type":"node","id":8987443941,"lat":-36.8614477,"lon":174.7207246,"tags":{"name":"South America","tourism":"attraction"}},{"type":"node","id":8987443942,"lat":-36.8622961,"lon":174.7190716,"tags":{"name":"Australia","tourism":"attraction"}},{"type":"node","id":9007489548,"lat":-36.8967365,"lon":174.9331548,"tags":{"addr:city":"Auckland","addr:housenumber":"6/43","addr:postcode":"2014","addr:street":"Cook Street","amenity":"music_school","education":"music_school","name":"Forte Music","phone":"+64 9 534 2223","website":"https://www.fortemusic.co.nz/"}},{"type":"node","id":9047697096,"lat":-36.7823162,"lon":175.00912,"tags":{"fee":"no","name":"[ s p a c e ] Art Gallery","tourism":"gallery"}},{"type":"node","id":9047697097,"lat":-36.7822085,"lon":175.0094728,"tags":{"fee":"no","name":"Toi Art Gallery","tourism":"gallery"}},{"type":"node","id":9083333051,"lat":-37.1484435,"lon":175.0354875,"tags":{"name":"Trolleys","tourism":"attraction"}},{"type":"node","id":9083333052,"lat":-37.1486093,"lon":175.0338616,"tags":{"name":"Monavale Cottages","tourism":"attraction"}},{"type":"node","id":9083333145,"lat":-37.1525656,"lon":175.0319691,"tags":{"name":"Bush Huts","operator":"Chosen Valley","tourism":"attraction"}},{"type":"node","id":9083333146,"lat":-37.1516682,"lon":175.0311658,"tags":{"name":"Burma Trail","operator":"Chosen Valley","tourism":"attraction"}},{"type":"node","id":9249297466,"lat":-36.8979904,"lon":174.934205,"tags":{"name":"Green Gables Cottage Art Gallery","tourism":"gallery"}},{"type":"node","id":9249297467,"lat":-36.8941484,"lon":174.9338744,"tags":{"name":"Malcolm Smith Gallery","tourism":"gallery"}},{"type":"node","id":9270960072,"lat":-37.2329444,"lon":174.7266401,"tags":{"name":"Waterslide","tourism":"attraction"}},{"type":"node","id":9285298010,"lat":-36.8827956,"lon":174.7324557,"tags":{"addr:city":"Auckland","addr:neighbourhood":"Saint Lukes","amenity":"cinema","branch":"Saint Lukes","brand":"Event Cinemas","brand:wikidata":"Q5416698","brand:wikipedia":"en:Event Cinemas","level":"1","name":"Event Cinemas"}},{"type":"node","id":9292211451,"lat":-36.8925686,"lon":174.6270338,"tags":{"amenity":"kindergarten","name":"Active Explorers Early Learning Centre"}},{"type":"node","id":9297855464,"lat":-36.8788262,"lon":174.6521024,"tags":{"addr:city":"Auckland","addr:housenumber":"66A","addr:street":"Divich Avenue","addr:suburb":"Te Atatū South","amenity":"kindergarten","brand":"Auckland Kindergarten Association","brand:wikidata":"Q116824744","name":"Te Atatū South Kindergarten","operator":"Auckland Kindergarten Association","ref:linz:address_id":"3024356"}},{"type":"node","id":9454349429,"lat":-36.8477791,"lon":174.7533977,"tags":{"amenity":"circus_school","name":"Circability","website":"https://www.circability.org/"}},{"type":"node","id":9641532281,"lat":-36.9248269,"lon":174.8952053,"tags":{"amenity":"kindergarten","name":"Wonder Kids"}},{"type":"node","id":9669551823,"lat":-36.7956321,"lon":174.6670628,"tags":{"amenity":"tool_library","name":"Habitat Hobsonville Tool Library"}},{"type":"node","id":9669621692,"lat":-36.7756746,"lon":174.6752185,"tags":{"amenity":"kindergarten","name":"Miniland"}},{"type":"node","id":9699602325,"lat":-36.8439212,"lon":174.7687214,"tags":{"amenity":"college","name":"New Zealand Maritime School","operator":"Manukau Institute of Technology","website":"https://nzmaritime.com"}},{"type":"node","id":9803065475,"lat":-37.2087418,"lon":174.7864056,"tags":{"contact:facebook":"https://facebook.com/glenbrookvintagerailway/","contact:instagram":"https://instagram.com/glenbrookvintagerailway/","email":"office@gvr.org.nz","name":"Glenbrook Vintage Railway","phone":"+64 9 236 3546","tourism":"attraction","website":"https://www.gvr.org.nz/"}},{"type":"node","id":9823880743,"lat":-36.8267907,"lon":174.8122902,"tags":{"historic":"cannon","name":"6-Inch Battery","tourism":"attraction"}},{"type":"node","id":9823880783,"lat":-36.8262243,"lon":174.8121698,"tags":{"name":"North Tunnels","tourism":"attraction"}},{"type":"node","id":9832273156,"lat":-36.9490671,"lon":174.8460891,"tags":{"amenity":"kindergarten","branch":"Ōtāhuhu","name":"Plunket","operator":"Plunket"}},{"type":"node","id":9873352401,"lat":-36.8097008,"lon":174.7418585,"tags":{"addr:city":"Auckland","addr:housenumber":"7","addr:postcode":"0627","addr:street":"Nutsey Avenue","amenity":"kindergarten","name":"Northcote Kindergarten","phone":"+64 9 480 7039","preschool":"yes","website":"https://www.aka.org.nz/our-locations/northcote-kindergarten/"}},{"type":"node","id":9875959667,"lat":-37.0656902,"lon":174.9437156,"tags":{"amenity":"prep_school","name":"Kip McGrath Papakura"}},{"type":"node","id":9879970063,"lat":-36.8165551,"lon":174.7315918,"tags":{"addr:city":"Auckland","addr:housenumber":"110","addr:postcode":"0626","addr:street":"Hinemoa Street","amenity":"community_centre","name":"Highbury Community House & Early Learning Centre","phone":"+64 9 480 5279","website":"https://highburyhouse.org.nz/"}},{"type":"node","id":9921538942,"lat":-37.0464374,"lon":174.9310042,"tags":{"amenity":"community_centre","name":"Takanini Community Hub","operator":"Auckland Council","operator:type":"government","operator:wikidata":"Q758635"}},{"type":"node","id":9989853186,"lat":-36.9085975,"lon":174.8461293,"tags":{"amenity":"theatre","capacity":"410","is_in":"Waipuna Conference Centre","linesets":"0","name":"Cole Theatre","name:etymology":"Derek Cole","old_name":"Derek Cole Theatre","operator":"Waipuna Conference Centre","operator:type":"private","website":"https://waipunahotel.co.nz"}},{"type":"node","id":10003506027,"lat":-36.9991756,"lon":174.8812436,"tags":{"amenity":"community_centre","name":"Te Whare Taiao","name:en":"The House of the Natural World","name:mi":"Te Whare Taiao"}},{"type":"node","id":10032773102,"lat":-36.9920493,"lon":174.8795591,"tags":{"amenity":"college","name":"Whitecliffe College of Arts and Design"}},{"type":"node","id":10055427551,"lat":-36.8508535,"lon":174.766415,"tags":{"amenity":"library","is_in":"Auckland Art Gallery Toi o Tāmaki","name":"E. H. McCormick Research Library","name:en":"E. H. McCormick Research Library","name:etymology":"Eric McCormick","name:etymology:wikidata":"Q5386650","name:mi":"Te Whare Pukapuka Rangahau","opening_hours":"We-Sa 13:00-17:00","operator":"Tātaki Auckland Unlimited","operator:type":"government","operator:wikidata":"Q55764471","website":"https://aucklandartgallery.com/art-ideas/e-h-mccormick-library","wikidata":"Q131290416"}},{"type":"node","id":10067905426,"lat":-36.812894,"lon":174.7274161,"tags":{"addr:city":"Auckland","addr:housenumber":"219","addr:postcode":"0626","addr:street":"Hinemoa Street","amenity":"music_school","name":"Meyta Music Classes","phone":"+64 21 163 7763","website":"https://www.meytamusicclasses.com/"}},{"type":"node","id":10156115767,"lat":-36.9282951,"lon":174.9145107,"tags":{"name":"Hologram Zoo","tourism":"attraction"}},{"type":"node","id":10177411298,"lat":-36.9898102,"lon":174.8690875,"tags":{"amenity":"kindergarten","name":"Little Kiwi Early Learning Centre","opening_hours":"Mo-Fr 07:30-18:00","phone":"+64 9 278 9833"}},{"type":"node","id":10209133877,"lat":-36.9646014,"lon":174.9136267,"tags":{"amenity":"cinema","brand":"Hoyts","brand:wikidata":"Q5922976","brand:wikipedia":"en:Hoyts","level":"1","name":"Hoyts","screen":"8","wheelchair":"yes"}},{"type":"node","id":10236459061,"lat":-36.9345406,"lon":174.9132896,"tags":{"addr:postcode":"2016","addr:street":"Sunset Terrace","addr:suburb":"Botany Town Centre","amenity":"library","level":"2","name":"Botany Library","operator":"Auckland Libraries","operator:en":"Auckland Libraries","operator:mi":"Ngā Pātaka Kōrero o Tāmaki Makaurau","operator:type":"government","operator:wikidata":"Q4819503","operator:wikipedia":"en:Auckland Libraries","wikidata":"Q100763738"}},{"type":"node","id":10236459161,"lat":-36.9340626,"lon":174.9142776,"tags":{"amenity":"cinema","brand":"Hoyts","brand:wikidata":"Q5922976","brand:wikipedia":"en:Hoyts","level":"1","name":"Hoyts"}},{"type":"node","id":10307993059,"lat":-36.8369276,"lon":175.550604,"tags":{"addr:city":"Coromandel","addr:postcode":"3581","addr:street":"The 309 Road","contact:phone":"+64 7 866 1106","name":"Waiau Kauri Grove","tourism":"attraction","website":"https://www.doc.govt.nz/parks-and-recreation/places-to-go/coromandel/places/coromandel-town-area/tracks/waiau-falls-and-kauri-grove-lookout/","wheelchair":"no"}},{"type":"node","id":10676987635,"lat":-36.8329194,"lon":174.6228919,"tags":{"amenity":"kindergarten","name":"Little Royals"}},{"type":"node","id":10677655822,"lat":-36.8531212,"lon":174.7455028,"tags":{"name":"Suite","tourism":"gallery"}},{"type":"node","id":10690527934,"lat":-36.8579941,"lon":174.7474367,"tags":{"fee":"no","name":"Objectspace","tourism":"gallery"}},{"type":"node","id":10872388411,"lat":-36.7962119,"lon":175.0476423,"tags":{"name":"Ostend Market","tourism":"attraction"}},{"type":"node","id":10873079010,"lat":-36.7820753,"lon":175.0089388,"tags":{"name":"Ten81","tourism":"gallery","website":"https://ten81.co.nz/"}},{"type":"node","id":10892579806,"lat":-36.7829487,"lon":175.0098801,"tags":{"name":"April Arcade","tourism":"attraction"}},{"type":"node","id":10915453655,"lat":-36.9582194,"lon":175.0594446,"tags":{"name":"Riverhaven Artland","tourism":"gallery"}},{"type":"node","id":11015547838,"lat":-36.8775139,"lon":174.6284109,"tags":{"addr:housenumber":"11","addr:postcode":"0610","addr:street":"Mount Lebanon Lane","addr:suburb":"Henderson","amenity":"theatre","capacity":"250","is_in":"Corban Estate Arts Centre","name":"Tokomanawa Theatre","name:en":"Tokomanawa Theatre","name:mi":"Tokomanawa","start_date":"2023-01","website":"https://tepoutheatre.nz"}},{"type":"node","id":11060852147,"lat":-36.9004232,"lon":174.9156665,"tags":{"amenity":"theatre","name":"Harlequin Musical Theatre"}},{"type":"node","id":11098733936,"lat":-36.9003528,"lon":174.8586129,"tags":{"addr:housenumber":"2A","addr:street":"Caen Road","addr:suburb":"Panmure","amenity":"kindergarten","name":"Te Kōhanga Reo o Te Tira Hou","name:mi":"Te Kōhanga Reo o Te Tira Hou"}},{"type":"node","id":11179768161,"lat":-37.2737767,"lon":175.4979063,"tags":{"addr:city":"Ngatea","addr:housenumber":"27","addr:postcode":"3503","addr:street":"River Road","addr:suburb":"Ngatea","amenity":"kindergarten","name":"Ngātea Kindergarten","operator":"Central Kids","ref:linz:address_id":"2283019","website":"https://www.centralkids.org.nz/kindergartens/ngatea-kindergarten"}},{"type":"node","id":11184219715,"lat":-36.8591631,"lon":174.7600137,"tags":{"amenity":"trade_school","check_date":"2026-06-02","name":"Servilles Academy","office":"educational_institution","training":"hairdresser"}},{"type":"node","id":11191505009,"lat":-36.8623839,"lon":174.7505964,"tags":{"amenity":"arts_centre","name":"Toi Ora","website":"https://toiora.org.nz/"}},{"type":"node","id":11234947362,"lat":-36.8307713,"lon":174.7979887,"tags":{"addr:housenumber":"6","addr:street":"Victoria Road","name":"Flagstaff Gallery","opening_hours":"Th-Sa 10:00-16:00; Su-We 11:00-16:00","tourism":"gallery"}},{"type":"node","id":11242516623,"lat":-36.8573344,"lon":174.7578948,"tags":{"amenity":"library","name":"Samoa House Library","opening_hours":"Mo-Su 11:00-17:00"}},{"type":"node","id":11340750997,"lat":-36.7243352,"lon":174.6886364,"tags":{"addr:city":"Auckland","addr:housenumber":"2/28","addr:postcode":"0632","addr:street":"The Avenue","amenity":"prep_school","name":"NumberWorks 'n Words"}},{"type":"node","id":11444803935,"lat":-36.4097498,"lon":174.6601175,"tags":{"amenity":"kindergarten","name":"Educare"}},{"type":"node","id":11468600097,"lat":-36.7585222,"lon":175.4981082,"tags":{"name":"Gallery 6","tourism":"gallery"}},{"type":"node","id":11468640604,"lat":-36.7592335,"lon":175.4981145,"tags":{"fee":"no","name":"Star Gallery","tourism":"gallery"}},{"type":"node","id":11472957264,"lat":-36.8578176,"lon":174.7579284,"tags":{"addr:street":"Karangahape Road","name":"Tautai Pacific Arts Trust","opening_hours":"Tu-Fr 10:00-16:00; Sa 11:00-16:00","tourism":"gallery","website":"https://www.tautai.org/","wikidata":"Q123857910"}},{"type":"node","id":11559389387,"lat":-36.8121386,"lon":174.7272934,"tags":{"addr:city":"Auckland","addr:housenumber":"251","addr:street":"Hinemoa Street","addr:suburb":"Birkenhead","amenity":"community_centre","community_centre:for":"senior","email":"info@bsca.org.nz","name":"Birkenhead Senior Citizens Hall"}},{"type":"node","id":11692341178,"lat":-36.8514537,"lon":174.7638336,"tags":{"amenity":"cinema","brand":"IMAX","brand:wikidata":"Q42034610","name":"IMAX","website":"https://www.eventcinemas.co.nz/experiences/Imax","wheelchair":"yes"}},{"type":"node","id":11777142679,"lat":-36.9922665,"lon":174.872431,"tags":{"amenity":"driving_school","name":"VTNZ Driving Centre"}},{"type":"node","id":11877749490,"lat":-36.9391042,"lon":174.6558654,"tags":{"addr:city":"Auckland","addr:housenumber":"500","addr:postcode":"0604","addr:street":"South Titirangi Road","addr:suburb":"Titirangi","amenity":"community_centre","name":"Titirangi War Memorial Hall","opening_hours":"Mo-Su 05:00-22:00","operator":"Auckland Council","operator:type":"government","operator:wikidata":"Q758635","website":"https://bookings.aucklandcouncil.govt.nz/facilities/facility/titirangi-war-memorial-hall"}},{"type":"node","id":11900345163,"lat":-36.8566068,"lon":174.7457975,"tags":{"amenity":"cinema","branch":"Ponsonby","brand":"Silky Otter","contact:facebook":"https://facebook.com/SilkyOtterPonsonby","contact:instagram":"https://instagram.com/silkyotterponsonby/","name":"Silky Otter","official_name":"Silky Otter Ponsonby","opening_hours":"Mo-Fr 11:00-22:00; Sa,Su 10:00-22:00","phone":"+64 9 956 8186","website":"https://www.silkyotter.co.nz/"}},{"type":"node","id":11919526189,"lat":-36.85771,"lon":174.7470773,"tags":{"amenity":"theatre","name":"Covert Theatre","website":"https://www.coverttheatre.com/"}},{"type":"node","id":11982472262,"lat":-36.7945768,"lon":174.7611984,"tags":{"name":"Korean Garden","tourism":"attraction"}},{"type":"node","id":11989948670,"lat":-36.8497358,"lon":174.8387056,"tags":{"addr:housenumber":"30","addr:street":"Holgate Road","amenity":"community_centre","name":"The Mary MacKillop Centre"}},{"type":"node","id":12014281565,"lat":-37.0475455,"lon":174.9301343,"tags":{"amenity":"cinema","name":"Silky Otter"}},{"type":"node","id":12065345718,"lat":-36.8871705,"lon":174.7120271,"tags":{"addr:city":"Auckland","addr:housenumber":"953C","addr:postcode":"1025","addr:street":"New North Road","addr:suburb":"Mount Albert","amenity":"music_school","level":"2","name":"Able Music Studio","website":"http://www.ablemusic.co.nz/"}},{"type":"node","id":12065372222,"lat":-36.8871958,"lon":174.7120511,"tags":{"addr:city":"Auckland","addr:housenumber":"953C","addr:postcode":"1025","addr:street":"New North Road","addr:suburb":"Mount Albert","amenity":"art_school","name":"Art Space Studio Mt Albert","name:en":"Art Space Studio Mt Albert","name:zh-Hans":"乐艺画室中区","short_name":"Art Space","website":"https://artspace.nz/mount-albert-studio/"}},{"type":"node","id":12146134075,"lat":-36.7674521,"lon":174.7383553,"tags":{"addr:city":"Auckland","addr:housenumber":"8/10","addr:postcode":"0627","addr:street":"Link Drive","addr:suburb":"Wairau Valley","amenity":"music_school","name":"Able Music Studio Sunnynook","opening_hours":"Sa-Su 09:00-18:00; We-Fr 15:00-18:00","phone":"+64 9 846 9618","website":"ablemusic.co.nz"}},{"type":"node","id":12151116376,"lat":-36.7760904,"lon":174.6698729,"tags":{"amenity":"kindergarten","brand":"Kindercare","brand:wikidata":"Q111023246","name":"Kindercare"}},{"type":"node","id":12200880740,"lat":-36.8594232,"lon":174.7543249,"tags":{"amenity":"community_centre","name":"The Button Factory"}},{"type":"node","id":12270375812,"lat":-36.7622762,"lon":174.5796378,"tags":{"amenity":"kindergarten","name":"Riverhead Montessori"}},{"type":"node","id":12270551273,"lat":-36.8906624,"lon":174.7029078,"tags":{"addr:city":"Auckland","addr:housenumber":"22A","addr:postcode":"1026","addr:street":"Powell Street","addr:suburb":"Avondale","amenity":"arts_centre","name":"Nannanxi Art Studio"}},{"type":"node","id":12333520328,"lat":-36.8120015,"lon":175.0841108,"tags":{"name":"Waiheke Wings","tourism":"attraction","website":"https://waihekewings.co.nz/"}},{"type":"node","id":12367359613,"lat":-36.9590949,"lon":175.2428373,"tags":{"addr:city":"Ōrere Point","addr:housenumber":"50","addr:postcode":"2585","addr:street":"Howard Road","addr:suburb":"Ōrere Point","amenity":"library","name":"Ōrere Point Library"}},{"type":"node","id":12398786821,"lat":-36.915824,"lon":174.6472646,"tags":{"amenity":"kindergarten","education":"kindergarten","name":"Glen Eden Playcentre"}},{"type":"node","id":12426967123,"lat":-36.8440826,"lon":174.7532252,"tags":{"name":"State of the arts","tourism":"gallery"}},{"type":"node","id":12479575426,"lat":-36.8566389,"lon":174.7599275,"tags":{"addr:city":"Auckland","addr:housenumber":"4","addr:postcode":"1021","addr:street":"Poynton Terrace","addr:suburb":"Auckland Central","amenity":"arts_centre","level":"-2","name":"The Audio Foundation","website":"https://www.audiofoundation.org.nz"}},{"type":"node","id":12487391019,"lat":-36.8972256,"lon":174.807338,"tags":{"name":"Revival","tourism":"attraction"}},{"type":"node","id":12487391713,"lat":-36.8537742,"lon":174.7664929,"tags":{"addr:housenumber":"27","addr:street":"Saint Paul Street","amenity":"university","education":"university","name":"AUT  Art & Design"}},{"type":"node","id":12487391714,"lat":-36.8539925,"lon":174.7667614,"tags":{"addr:housenumber":"34","addr:street":"Saint Paul Street","amenity":"university","education":"university","name":"AUT    Science"}},{"type":"node","id":12487391715,"lat":-36.8539166,"lon":174.7660671,"tags":{"addr:housenumber":"40","addr:street":"Saint Paul Street","amenity":"university","education":"university","name":"AUT  Art & Design"}},{"type":"node","id":12487391806,"lat":-36.8543487,"lon":174.7676715,"tags":{"addr:street":"Symonds Street","amenity":"university","education":"university","name":"AUT Engineering, Computer and Mathematical Sciences"}},{"type":"node","id":12487391905,"lat":-36.8540594,"lon":174.7673426,"tags":{"addr:housenumber":"6","addr:street":"Saint Paul Street","amenity":"university","education":"university","name":"AUT  AUT Engineering, Computer and Mathematical Sciences"}},{"type":"node","id":12487392004,"lat":-36.8535674,"lon":174.76588,"tags":{"amenity":"university","education":"university","name":"AUT   Lecture Theatre"}},{"type":"node","id":12487392504,"lat":-36.8535974,"lon":174.7660661,"tags":{"amenity":"university","education":"university","name":"AUT  Screen Production"}},{"type":"node","id":12487567103,"lat":-36.9007459,"lon":174.7211553,"tags":{"addr:housenumber":"190","addr:street":"Stoddard Road","amenity":"community_centre","name":"Tulja Centre"}},{"type":"node","id":12501045623,"lat":-36.6224673,"lon":174.6685415,"tags":{"addr:housenumber":"8","addr:street":"Hibiscus Coast Highway","amenity":"community_centre","email":"hbcislamictrust@gmail.com","mobile":"+64 21 592 262","name":"Hibiscus Coast Islamic Community"}},{"type":"node","id":12501045624,"lat":-36.7455083,"lon":174.7353262,"tags":{"addr:housenumber":"5i","addr:postcode":"0632","addr:street":"Apollo Drive","amenity":"community_centre","contact:facebook":"NorthShoreAhlulbaytCentre","email":"northshore@ahlulbayt.nz","name":"North Shore Ahlulbayt Centre","website":"https://ahlulbayt.nz/"}},{"type":"node","id":12501045625,"lat":-36.900781,"lon":174.7199981,"tags":{"addr:housenumber":"236","addr:street":"Richardson Road","amenity":"community_centre","contact:facebook":"https://facebook.com/p/Al-Hijaz-Masjid-10067210011215","mobile":"+64 22 509 9786;+64 21 796 786;+64 210 634 839","name":"Al Hijaz Masjid","website":"https://alhijaz.co.nz/"}},{"type":"node","id":12501045628,"lat":-36.8861008,"lon":174.8545865,"tags":{"addr:housenumber":"1/17","addr:street":"Hannigan Drive","amenity":"community_centre","name":"Imam Ali Mosque","phone":"+64 9 570 6061"}},{"type":"node","id":12501045630,"lat":-36.9747935,"lon":174.8784371,"tags":{"addr:housenumber":"167","addr:street":"Tui Road","amenity":"community_centre","mobile":"+64 27 578 6756;+64 22 383 5016","name":"Papatoetoe Muslim Youth - Masjid"}},{"type":"node","id":12501069620,"lat":-36.892108,"lon":174.7356601,"tags":{"addr:housenumber":"L1/14","addr:street":"Kitchener Road","amenity":"community_centre","contact:facebook":"darularqammosque","email":"uklatrust@gmail.com","mobile":"+64 20 444 6060;+64 20 4024 4684","name":"Darul Arqam Mosque ( Sandringham Islamic Trust )"}},{"type":"node","id":12501069622,"lat":-36.7750786,"lon":174.513223,"tags":{"addr:housenumber":"277","addr:street":"Trigg Road","amenity":"community_centre","mobile":"+64 22 562 4511","name":"North West Masjid and Darul Uloom - (Darul Uloom Arabia Islamia)"}},{"type":"node","id":12501069623,"lat":-36.9488472,"lon":174.6304086,"tags":{"addr:housenumber":"295","addr:postcode":"0604","addr:street":"Huia Road","amenity":"community_centre","name":"Titirangi Musala Mosque"}},{"type":"node","id":12501069624,"lat":-36.9682983,"lon":174.8276953,"tags":{"addr:housenumber":"71","addr:street":"Hallberry Road","amenity":"community_centre","contact:facebook":"AotearoaMuslimYouthMZ","email":"amy.muslim.youth@gmail.com","mobile":"+64 27 703 6560;+64 22 317 1144","name":"Aotearoa Muslim Youth - Masjid","website":"https://muslimyouth.nz/"}},{"type":"node","id":12501069626,"lat":-36.9895847,"lon":174.8615719,"tags":{"addr:housenumber":"26","addr:street":"Ranfurly Road","amenity":"community_centre","mobile":"+64 21 263 1308;+64 22 070 3819","name":"Masjid-E-Zahra - (Al Falah Education Trust)","website":"http://alfalah.nz"}},{"type":"node","id":12501069627,"lat":-36.9791478,"lon":174.8530141,"tags":{"addr:housenumber":"38","addr:street":"Webster Lane","amenity":"community_centre","contact:facebook":"miycnz","name":"Manukau Islamic Youth Centre - Masjid","phone:NZ":"0800 696 492","website":"https://miyc.co.nz/"}},{"type":"node","id":12501085505,"lat":-36.9104198,"lon":174.750291,"tags":{"addr:housenumber":"16","addr:street":"Frost Road","amenity":"community_centre","contact:facebook":"alishah.nz","email":"muhammad.shaban@mail.com","mobile":"+64 210 539 925","name":"AL-ISLAH NZ Prayer Centre"}},{"type":"node","id":12501085506,"lat":-36.9205234,"lon":174.7366952,"tags":{"addr:housenumber":"1484b","addr:street":"Dominion Road","amenity":"community_centre","contact:facebook":"BaitulMukarramNZ","mobile":"+64 210 262 4169;+64 21 234 7019;+64 20 4056 1550","name":"Baitul Mukarram Islamic Centre","website":"https://baitulmukarram.co.nz/"}},{"type":"node","id":12501085507,"lat":-37.0865299,"lon":174.9646202,"tags":{"addr:housenumber":"48","addr:street":"Ponga Road","amenity":"community_centre","contact:facebook":"Papakura-Mussalah-101739702016073","mobile":"+64 21 876 836;+64 21 137 1310","name":"Falahe Darain (Papakura Musallah Masjid)"}},{"type":"node","id":12501085508,"lat":-37.0277914,"lon":174.8659869,"tags":{"addr:housenumber":"8","addr:street":"Burundi Avenue","amenity":"community_centre","contact:facebook":"musallahfatima","email":"musallahfatima@gmail.com","mobile":"+64 27 305 7393;+64 22 598 9362","name":"Musallah Fatima - Masjid"}},{"type":"node","id":12501086603,"lat":-36.8851922,"lon":174.7750783,"tags":{"addr:housenumber":"3/52","addr:street":"Ranfurly Road","amenity":"community_centre","mobile":"+64 21 132 1583","name":"Epsom Musalla"}},{"type":"node","id":12501086604,"lat":-36.9055759,"lon":174.7301802,"tags":{"addr:housenumber":"60","addr:postcode":"1041","addr:street":"Stoddard Road","amenity":"community_centre","contact:facebook":"nzict","name":"New Zealand Islamic Cultural Trust ( NZICT )","phone":"+64 9 620 0371;+64 210 274 6779","website":"https://nzict.org.nz/"}},{"type":"node","id":12501086702,"lat":-37.190637,"lon":174.992411,"tags":{"addr:housenumber":"7","addr:street":"Razorback Road","amenity":"community_centre","contact:facebook":"darululoomnz","mobile":"+64 22 103 5814","name":"Darul Uloom Ihyaa-ud-deen Masjid"}},{"type":"node","id":12508326801,"lat":-36.8991533,"lon":174.8528009,"tags":{"addr:housenumber":"32 - 34","addr:street":"Queens Road","amenity":"school","name":"Active Institute","opening_hours":"Mo-Fr 09:00-15:00","phone":"+64 9 278 0849","website":"https://activeinstitute.co.nz/"}},{"type":"node","id":12523108401,"lat":-37.0215278,"lon":174.9224687,"tags":{"addr:housenumber":"463","addr:postcode":"2105","addr:street":"Porchester Road","amenity":"community_centre","contact:facebook":"Porchester-Islamic-Centre-FIANZ-422812938557465","name":"Porchester Islamic Centre - Masjid","phone":"+64 210 884 2947;+64 21 828 947"}},{"type":"node","id":12523108802,"lat":-36.923894,"lon":174.7807161,"tags":{"addr:housenumber":"30","addr:street":"Hill Street","amenity":"community_centre","email":"enquiries@csctrust.me","name":"Community Service Connect Trust","phone":"+64 9 963 7166;+64 29 771 0362","website":"https://csctrust.me/"}},{"type":"node","id":12523109205,"lat":-36.9006867,"lon":174.7212679,"tags":{"addr:housenumber":"190","addr:street":"Stoddard Road","amenity":"school","contact:facebook":"Islamicwomenscouncilofnz","email":"info@nzethnicwomen.org","name":"NZ Ethnic Women's Trust","phone":"+64 21 214 6247","website":"https://nzethnicwomen.org;https://iwcnz.org.nz"}},{"type":"node","id":12523109304,"lat":-36.8951111,"lon":174.701472,"tags":{"addr:housenumber":"122","addr:postcode":"1022","amenity":"community_centre","name":"Avondale Islamic Centre Youth","phone":"+64 9 828 2786"}},{"type":"node","id":12523109502,"lat":-36.9443985,"lon":174.8466042,"tags":{"addr:housenumber":"6/115","addr:street":"Church Street","amenity":"community_centre","contact:instagram":"thefatimah_foundation","email":"info@fatimahfoundation.org.nz","name":"The Fatimah Foundation","phone":"+64 9 259 4454","phone:NZ":"0800 222 432","website":"https://fatimahfoundation.org.nz/"}},{"type":"node","id":12523109603,"lat":-36.9012288,"lon":174.8063504,"tags":{"amenity":"community_centre","email":"muslimservice@kahuitukaha.co.nz","name":"Muslim Mental Health Service - Kahu Tu Kaha","phone:NZ":"0800 559 592;0800 678 323","website":"https://kahuitukaha.co.nz/"}},{"type":"node","id":12523109604,"lat":-36.8951342,"lon":174.7014733,"tags":{"amenity":"community_centre","email":"legal@nzma.kiwi.nz","name":"NZMA Dawah Center","website":"http://nzma.kiwi.nz/dawah-centre/"}},{"type":"node","id":12523109903,"lat":-37.0216252,"lon":174.922478,"tags":{"addr:housenumber":"463","addr:street":"Porchester Road","amenity":"community_centre","contact:facebook":"baitulmaalnz","email":"info@baitulmaal.nz","name":"Baitul Maal Trust","phone":"+64 9 973 4970","website":"https://baitulmaal.nz/"}},{"type":"node","id":12526103301,"lat":-36.9034144,"lon":174.74232,"tags":{"addr:housenumber":"1/1248","addr:street":"Dominion Road","amenity":"prep_school","education":"prep_school","email":"mtroskill@successtutoring.com","name":"Success Tutoring","opening_hours":"Mo-Fr 16:00-20:00; Sa 10:00-16:00","phone":"+64 21 281 1248","website":"https://successtutoring.com/nz"}},{"type":"node","id":12585429708,"lat":-36.8667407,"lon":174.7732446,"tags":{"addr:housenumber":"level4/391-393","amenity":"music_school","email":"stardancenz@gmail.com","name":"Stardance","phone":"+64 9 520 9497","website":"https://stardance.co.nz/"}},{"type":"node","id":12585429711,"lat":-36.9089009,"lon":174.6809321,"tags":{"addr:housenumber":"3091","addr:postcode":"0600","addr:street":"Great North Road","amenity":"language_school","education":"language_school","email":"auckland@englishlanguage.org.nz","name":"English Language Partners NZ","phone":"+64 9 827 7882","website":"https://www.englishlanguage.org.nz"}},{"type":"node","id":12585429801,"lat":-36.8544964,"lon":174.766211,"tags":{"amenity":"university","education":"university","name":"AUT - School of Applied Scienced"}},{"type":"node","id":12585429803,"lat":-36.8495823,"lon":174.7653179,"tags":{"addr:housenumber":"level 10/238","addr:street":"Queen Street","amenity":"language_school","name":"Dynaspeak","phone":"+64 9 377 3424","phone:NZ":"0800 355 344","website":"https://www.dynaspeak.ac.nz/"}},{"type":"node","id":12585429812,"lat":-36.7903364,"lon":174.7733673,"tags":{"addr:housenumber":"L1 / 424","addr:postcode":"0622","addr:street":"Lake Road","amenity":"language_school","email":"northshore@englishlanguage.org.nz","name":"English Language Partners NZ","phone":"+64 9 489 2078","website":"https://englishlanguage.org.nz/"}},{"type":"node","id":12585429813,"lat":-36.9912995,"lon":174.8813418,"tags":{"amenity":"language_school","email":"aucklandsouth@englishlanguage.org.nz","level":"2","name":"English Language Partners NZ","phone":"+64 9 278 9099","website":"https://englishlanguage.org.nz/"}},{"type":"node","id":12585429835,"lat":-36.9072865,"lon":174.6894713,"tags":{"addr:housenumber":"7A","addr:street":"Veronica Street","name":"Auckland City Auctions","tourism":"attraction"}},{"type":"node","id":12585431507,"lat":-36.8708744,"lon":174.7774212,"tags":{"addr:housenumber":"300","addr:street":"Broadway","name":"Scribb","tourism":"attraction"}},{"type":"node","id":12585432001,"lat":-36.9292323,"lon":174.9168903,"tags":{"addr:housenumber":"2","addr:postcode":"2014","addr:street":"Dannemora Drive","amenity":"language_school","name":"International Baptist Church (English Classes)","phone":"+64 9 273 3349","website":"https://ibcchurch.com/"}},{"type":"node","id":12590431413,"lat":-36.7539572,"lon":174.7068119,"tags":{"addr:housenumber":"1/2a","addr:postcode":"0632","addr:street":"William Pickering Drive","amenity":"language_school","name":"Dynaspeak - Albany Campus","phone":"+64 9 448 2570","phone:NZ":"0800 355 344","website":"https://www.dynaspeak.ac.nz/"}},{"type":"node","id":12590431416,"lat":-36.8683924,"lon":174.9038427,"tags":{"addr:street":"Wharf Road","amenity":"community_centre","name":"Plunket","phone:NZ":"0800 933 922"}},{"type":"node","id":12590431507,"lat":-36.9097037,"lon":174.687297,"tags":{"addr:housenumber":"18","addr:street":"Clark Street","amenity":"arts_centre","name":"Epic Engraving"}},{"type":"node","id":12594284904,"lat":-36.8996082,"lon":174.8546482,"tags":{"addr:housenumber":"84","addr:street":"Queens Road","amenity":"community_centre","name":"Aotea Finance (Panmure) Ltd","phone":"+64 9 527 2542"}},{"type":"node","id":12596457701,"lat":-36.8985335,"lon":174.8546029,"tags":{"amenity":"community_centre","name":"Citizen Advice Bureau"}},{"type":"node","id":12662462393,"lat":-36.7746781,"lon":174.7181121,"tags":{"addr:city":"Auckland","addr:housenumber":"26","addr:postcode":"0629","addr:street":"Manuka Road","addr:suburb":"Glenfield","amenity":"kindergarten","name":"BestStart Glenfield","phone":"+64 9 443 3023","ref:linz:address_id":"1054403","website":"https://best-start.org/find-a-centre"}},{"type":"node","id":12747587288,"lat":-36.7912758,"lon":174.7620425,"tags":{"amenity":"school","check_date":"2025-11-25","education":"school","email":"info@summitpoint.school.nz","name":"Summit Point School","phone":"+64 9 973 5354","website":"https://summitpoint.school.nz"}},{"type":"node","id":12828014401,"lat":-36.8809006,"lon":174.8124472,"tags":{"addr:housenumber":"6","addr:postcode":"1050","addr:street":"Minto Road","amenity":"kindergarten","name":"Te Puawaitanga o Atareta Playcentre","opening_hours":"Mo-Th 09:15-15:00; Fr 09:15-13:00"}},{"type":"node","id":12841149868,"lat":-36.8869106,"lon":174.5753704,"tags":{"addr:city":"Auckland","addr:housenumber":"51","addr:street":"Coulter Road","addr:suburb":"Swanson","amenity":"kindergarten","fee":"yes","max_age":"6","min_age":"2","name":"Farm Friends","phone":"+64 9 832 3600","website":"https://www.farmfriends.co.nz/"}},{"type":"node","id":12854979702,"lat":-36.8574832,"lon":174.7601077,"tags":{"name":"Saint Kevin’s Arcade","tourism":"attraction"}},{"type":"node","id":12861763102,"lat":-36.9095177,"lon":174.7668532,"tags":{"addr:street":"Mount Albert Road","amenity":"community_centre","name":"Carmelite nuns catholic community center."}},{"type":"node","id":13025534732,"lat":-37.2383578,"lon":175.5632568,"tags":{"amenity":"kindergarten","brand":"Barnados","name":"Turua Early Learning Centre","website":"https://barnardosearlylearning.org.nz/locations/early-learning-centres/turua"}},{"type":"node","id":13033739855,"lat":-37.25136,"lon":174.7313862,"tags":{"addr:city":"Waiuku","addr:housenumber":"80","addr:postcode":"2123","addr:street":"Queen Street","addr:suburb":"Waiuku","amenity":"theatre","name":"Backstage Theatre","website":"https://waiukutheatre.com/","wikidata":"Q137802489"}},{"type":"node","id":13103486957,"lat":-36.9202561,"lon":174.7169681,"tags":{"amenity":"school","name":"I4 classroom"}},{"type":"node","id":13103486958,"lat":-36.9202993,"lon":174.7170622,"tags":{"amenity":"school","name":"I5 classroom"}},{"type":"node","id":13103486960,"lat":-36.919928,"lon":174.7166548,"tags":{"amenity":"school","name":"Science Technician Office"}},{"type":"node","id":13122124801,"lat":-36.7427365,"lon":175.5064294,"tags":{"addr:housenumber":"410","addr:street":"Buffalo Road","name":"Coromandel Gold Stamper Battery","tourism":"attraction"}},{"type":"node","id":13196875100,"lat":-36.8820607,"lon":174.8599618,"tags":{"amenity":"kindergarten","name":"Community Kids Early Learning Centre"}},{"type":"node","id":13234358066,"lat":-36.8630926,"lon":174.7572081,"tags":{"addr:city":"Auckland","addr:housenumber":"L - 1 / 111","addr:postcode":"1010","addr:street":"Newton Road","addr:suburb":"Eden Terrace","amenity":"music_school","email":"hello@aucklanddrumstudio.co.nz","image":"https://aucklanddrumstudio.co.nz/wp-content/uploads/2022/06/THE_DRUM_STUDIO_WHITE-no-background-1.png","name":"The Drum Studio","phone":"+64 21 292 5193","website":"https://aucklanddrumstudio.co.nz/"}},{"type":"node","id":13293729102,"lat":-36.8741297,"lon":174.7307447,"tags":{"amenity":"arts_centre","name":"Māpura Studios"}},{"type":"node","id":13312077956,"lat":-36.8805568,"lon":174.7949505,"tags":{"addr:city":"Auckland","addr:housenumber":"281","addr:postcode":"1050","addr:street":"Remuera Road","addr:suburb":"Remuera","amenity":"prep_school","education":"prep_school","name":"Singapore Math"}},{"type":"node","id":13323577587,"lat":-36.8999613,"lon":174.7574515,"tags":{"addr:housenumber":"852A","addr:street":"Mount Eden Road","addr:suburb":"Three Kings","amenity":"prep_school","branch":"Three Kings","brand":"Kip McGrath","brand:wikidata":"Q126736658","education":"prep_school","email":"threekings@kipmcgrath.co.nz","name":"Kip McGrath","opening_hours":"Mo-Th 12:00-20:00; Sa 09:00-15:00","phone":"+64 21 247 3751","website":"https://www.kipmcgrath.co.nz/three-kings"}},{"type":"node","id":13362351201,"lat":-36.9378469,"lon":174.6567406,"tags":{"addr:city":"Auckland","addr:housenumber":"406","addr:postcode":"0604","addr:street":"Titirangi Road","addr:suburb":"Titirangi","amenity":"music_school","contact:facebook":"https://www.facebook.com/MusoMinds","contact:instagram":"https://www.instagram.com/musominds/","contact:youtube":"https://www.youtube.com/@musominds2102","education":"music_school","email":"admin@musominds.com","name":"MusoMinds Titirangi","phone":"+64 9 972 4153","website":"https://www.musominds.com/"}},{"type":"node","id":13362990658,"lat":-36.7396854,"lon":174.7032058,"tags":{"amenity":"prep_school","brand":"Kumon","brand:wikidata":"Q142054","name":"Kumon"}},{"type":"node","id":13365274799,"lat":-36.8540139,"lon":174.6296509,"tags":{"amenity":"kindergarten","level":"1","name":"Kidtropolis"}},{"type":"node","id":13410091389,"lat":-36.793156,"lon":175.0247791,"tags":{"name":"Lume","tourism":"gallery","website":"https://wearelume.co.nz/"}},{"type":"node","id":13529509784,"lat":-36.8703945,"lon":174.7089361,"tags":{"amenity":"community_centre","community_centre":"parish_hall","name":"Catholic Parish of Saint Francis and Saint Therese"}},{"type":"node","id":13644774548,"lat":-36.978033,"lon":174.7907251,"tags":{"addr:city":"Auckland","addr:housenumber":"1","addr:postcode":"2022","addr:street":"Kohinoor Avenue","addr:suburb":"Māngere","amenity":"kindergarten","education":"kindergarten","name":"Kinderland Educare","phone":"+64 9 275 0111","preschool":"yes","website":"https://www.kinderlandeducare.co.nz"}},{"type":"node","id":13667982801,"lat":-36.9490106,"lon":174.833125,"tags":{"addr:street":"Titi Street","amenity":"community_centre","name":"God of all Grace Ministries Otahuhu"}},{"type":"node","id":13668077501,"lat":-36.3984246,"lon":174.6672222,"tags":{"addr:housenumber":"24","addr:street":"Baxter Street","name":"Warkworth Museum","tourism":"gallery","website":"https://warkworthmuseum.co.nz/"}},{"type":"node","id":13668188901,"lat":-36.8452947,"lon":174.7683721,"tags":{"name":"So / Gallery","tourism":"gallery"}},{"type":"node","id":13676707304,"lat":-36.7635336,"lon":174.7369305,"tags":{"amenity":"school","name":"JEI Self-learning Systems Ltd"}},{"type":"node","id":13676707407,"lat":-36.7634954,"lon":174.7370961,"tags":{"amenity":"school","name":"Excellence International Academy","phone":"+64 9 366 6198"}},{"type":"node","id":13685538564,"lat":-36.8888509,"lon":174.7954796,"tags":{"addr:city":"Auckland","addr:housenumber":"1-7","addr:postcode":"1051","addr:street":"Marewa Road","addr:suburb":"Greenlane","amenity":"university","education":"university","name":"Carey Baptist College","website":"https://carey.ac.nz"}},{"type":"node","id":13685790203,"lat":-36.8822993,"lon":174.7488208,"tags":{"addr:housenumber":"419","addr:street":"Dominion Road","name":"Cabello","phone":"+64 9 623 1680","tourism":"gallery"}},{"type":"node","id":13685790501,"lat":-36.8824138,"lon":174.7487753,"tags":{"addr:housenumber":"421","addr:street":"Dominion Road","amenity":"community_centre","name":"Disabled Citizens Society Inc"}},{"type":"node","id":13687338601,"lat":-37.1368052,"lon":175.541066,"tags":{"addr:housenumber":"659","addr:postcode":"3500","addr:street":"Pollen Street","amenity":"cinema","check_date":"2026-03-29","name":"Leftbank Theatre","website":"https://leftbanktheatre.co.nz/"}},{"type":"node","id":13687474002,"lat":-36.8794561,"lon":174.7500408,"tags":{"addr:housenumber":"360A","addr:street":"Dominion Road","amenity":"school","name":"Kip McGrath. English & Maths Tutoring","phone:NZ":"0800 032 041","website":"https://www.kipmcgrath.co.nz/mt-eden"}},{"type":"node","id":13694350501,"lat":-36.945351,"lon":174.8360895,"tags":{"addr:housenumber":"94","addr:postcode":"1062","addr:street":"Station Road","name":"H3 NZ","tourism":"attraction","website":"https://h3nz.co.nz/"}},{"type":"node","id":13694350603,"lat":-36.9462265,"lon":174.8347102,"tags":{"addr:housenumber":"108A","addr:postcode":"1062","addr:street":"Station Road","amenity":"community_centre","name":"TSI Community"}},{"type":"node","id":13694350605,"lat":-36.9476453,"lon":174.8342193,"tags":{"amenity":"community_centre","name":"Mangere Budgeting Services Trust"}},{"type":"node","id":13704668603,"lat":-36.7951718,"lon":174.7560234,"tags":{"addr:housenumber":"58","addr:postcode":"0627","addr:street":"Akoranga Drive","amenity":"community_centre","name":"NSIA Hub ( Masjid & Centre)"}},{"type":"node","id":13706976359,"lat":-36.6290272,"lon":174.6537325,"tags":{"amenity":"kindergarten","name":"Fantails Estate","website":"https://www.fantailschildcare.co.nz/our-centers/Fantails-Estate/"}},{"type":"node","id":13715336402,"lat":-36.8658023,"lon":174.7577097,"tags":{"addr:housenumber":"1","addr:street":"Rendall Place","amenity":"community_centre","name":"Te Rūnaga Ngāti Whātua"}},{"type":"node","id":13717638601,"lat":-36.9113454,"lon":174.7764229,"tags":{"addr:street":"Manukau Road","amenity":"school","name":"Number Works 'n Words","phone":"+64 9 625 8091","website":"http://NumberWorksnWords.com/nz"}},{"type":"node","id":13722330902,"lat":-36.8713266,"lon":174.7523491,"tags":{"addr:housenumber":"89","addr:street":"Dominion Road","amenity":"community_centre","name":"Sri Chinmoy Meditation Centre"}},{"type":"node","id":13722354005,"lat":-36.8724638,"lon":174.7531036,"tags":{"addr:housenumber":"76","addr:street":"View Road","amenity":"kindergarten","name":"Daystar Childcare","opening_hours":"Mo-Su 07:30-16:30","phone":"+64 9 630 5571","website":"https://www.daystarchildcare.co.nz/"}},{"type":"node","id":13733819802,"lat":-36.9117755,"lon":174.7744244,"tags":{"addr:housenumber":"707A","addr:street":"Mount Albert Road","amenity":"school","name":"MRS.Y","phone":"+64 9 625 6999"}},{"type":"node","id":13741628201,"lat":-36.909974,"lon":174.6528352,"tags":{"addr:housenumber":"3","addr:street":"Clayburn Road","amenity":"kindergarten","name":"Glen Eden Kindergarten","phone":"+64 9 818 6389","website":"https://aka.org.nz/"}},{"type":"node","id":13744187903,"lat":-36.9106177,"lon":174.6524529,"tags":{"addr:housenumber":"L1/200","addr:street":"West Coast Road","amenity":"music_school","name":"AWDA Rhythm 'n' Steps","phone":"+64 27 264 7287","website":"https://www.awda.co.nz/"}},{"type":"node","id":13744188801,"lat":-36.9074533,"lon":174.7328085,"tags":{"addr:housenumber":"22","addr:street":"Stoddard Road","amenity":"prep_school","brand":"Kumon","brand:wikidata":"Q142054","name":"Kumon - Maths & English","opening_hours":"Mo,We,Th 15:30-20:00; Tu 03:30-19:15; Sa 09:00-13:30","phone":"+64 21 562 111","website":"https://nz.kumonglobal.com/"}},{"type":"node","id":13751528002,"lat":-36.8820621,"lon":174.7622475,"tags":{"addr:housenumber":"452","addr:street":"Mount Eden Road","amenity":"arts_centre","name":"Archivista","phone":"+64 9 630 1213","website":"http://Archivista.co.nz"}},{"type":"node","id":13753873102,"lat":-36.8729812,"lon":174.7809298,"tags":{"addr:housenumber":"97","addr:street":"Remuera Road","amenity":"kindergarten","name":"Best Start"}},{"type":"node","id":13754033002,"lat":-36.8807263,"lon":174.7958247,"tags":{"addr:housenumber":"L1/305a","addr:street":"Remuera Road","amenity":"school","name":"Thinking2Morrow","website":"http://t2m.nz"}},{"type":"node","id":13754098601,"lat":-36.8957911,"lon":174.8024714,"tags":{"addr:housenumber":"23A","addr:postcode":"1051","addr:street":"Main Highway","amenity":"kindergarten","name":"Lollipops","phone":"+64 9 571 2381","website":"https://EvolveEducation.co.nz"}},{"type":"node","id":13757773203,"lat":-36.9026373,"lon":174.7255734,"tags":{"addr:housenumber":"159","addr:postcode":"1041","addr:street":"Stoddard Road","amenity":"kindergarten","name":"SIP Abacus","phone":"+64 9 977 9967","website":"http://sipAbacus.co.nz"}},{"type":"node","id":13757773602,"lat":-36.8946589,"lon":174.6974839,"tags":{"addr:housenumber":"50A","addr:postcode":"1026","addr:street":"Rosebank Road","amenity":"community_centre","name":"Avondale Community House","website":"http://peaetrust.org"}},{"type":"node","id":13757773603,"lat":-36.8946533,"lon":174.6973313,"tags":{"addr:housenumber":"52A","addr:street":"Rosebank Road","amenity":"community_centre","name":"Rosebank Mediation & Conference Centre"}},{"type":"node","id":13759490301,"lat":-36.8970404,"lon":174.8113791,"tags":{"addr:housenumber":"16","addr:street":"Arthur Street","amenity":"kindergarten","name":"Pahutukawa","phone":"+64 9 579 5008","website":"http://Pahutukawa.net.nz"}},{"type":"node","id":13761864970,"lat":-36.7255204,"lon":174.694443,"tags":{"amenity":"library","name":"Albany Village Library","operator":"Auckland Libraries","operator:en":"Auckland Libraries","operator:mi":"Ngā Pātaka Kōrero o Tāmaki Makaurau","operator:type":"government","operator:wikidata":"Q4819503"}},{"type":"node","id":13762163002,"lat":-36.8966733,"lon":174.7440555,"tags":{"addr:housenumber":"825","addr:street":"Dominion Road","amenity":"kindergarten","email":"enquiries@DominionChildCare.co.nz","name":"Dominion Child Care Centre","phone":"+64 9 629 4888","website":"http://DominionChildCare.co.nz"}},{"type":"node","id":13762275829,"lat":-36.9027979,"lon":174.7416999,"tags":{"addr:housenumber":"945","addr:street":"New North Rd","amenity":"community_centre","name":"Manhattan - function centre"}},{"type":"node","id":13773205007,"lat":-36.8599332,"lon":174.752217,"tags":{"addr:housenumber":"15","addr:street":"Great North Road","name":"Eyes on Fire","tourism":"gallery"}},{"type":"node","id":13778141004,"lat":-36.8761715,"lon":174.7775871,"tags":{"addr:housenumber":"L1/1","addr:postcode":"1023","addr:street":"Great South Road","amenity":"school","name":"Peak Education","website":"https://peakeducation.co.nz/"}},{"type":"node","id":13778913803,"lat":-36.8571486,"lon":174.7471843,"tags":{"addr:housenumber":"61","addr:street":"MacKelvie Street","amenity":"arts_centre","name":"In Arcade","opening_hours":"Tu-Su 10:00-16:30","website":"https://www.inarcade.co.nz/"}},{"type":"node","id":13778913907,"lat":-36.8575414,"lon":174.7469014,"tags":{"addr:housenumber":"55A","addr:street":"MacKelvie Street","amenity":"arts_centre","email":"sales@stonebaths.co.nz","name":"stonebaths","opening_hours":"Mo-Su 08:00-20:00"}},