{"category":"recreation","generated_at":"2026-07-17T18:42:38.868833+00:00","bbox":"-37.2926,174.3289,-36.3911,175.6288","source":"OpenStreetMap via Overpass API","elements":[{"type":"node","id":260727367,"lat":-36.8659353,"lon":174.7783937,"tags":{"addr:city":"Auckland","addr:housenumber":"77","addr:postcode":"1023","addr:street":"Broadway","addr:suburb":"Newmarket","leisure":"swimming_pool","length":"50","location":"indoor","name":"The Olympic Pools & Fitness Centre","opening_hours":"Mo-Fr 05:30-21:00; Sa-Su 07:00-20:00","phone":"+64 9 522 4414","ref:linz:address_id":"1141472","sport":"swimming;fitness;scuba_diving","swimming_pool":"indoor","website":"https://www.theolympic.co.nz/","wheelchair":"limited"}},{"type":"node","id":267813079,"lat":-36.7970197,"lon":175.0911013,"tags":{"created_by":"JOSM","name":"Kauri Grove","tourism":"viewpoint"}},{"type":"node","id":311464341,"lat":-36.8139449,"lon":175.0717306,"tags":{"created_by":"Potlatch 0.10f","name":"Lookout","tourism":"viewpoint"}},{"type":"node","id":364883882,"lat":-36.919558,"lon":174.57374,"tags":{"created_by":"Potlatch 0.10f","name":"Parekura Peak","tourism":"viewpoint"}},{"type":"node","id":413310971,"lat":-36.9417603,"lon":174.6016147,"tags":{"name":"Kauri Cathedral","tourism":"viewpoint"}},{"type":"node","id":472591859,"lat":-36.9507346,"lon":174.4803239,"tags":{"name":"Kitenui Knob","tourism":"viewpoint","wikidata":"Q124077104"}},{"type":"node","id":560598127,"lat":-37.1020012,"lon":175.1251376,"tags":{"name":"Wairoa Dam Lookout","tourism":"viewpoint"}},{"type":"node","id":573880017,"lat":-36.9842587,"lon":174.4855101,"tags":{"name":"Werera","tourism":"viewpoint"}},{"type":"node","id":660541144,"lat":-36.9077698,"lon":174.469134,"tags":{"name":"Kuataika Trig","tourism":"viewpoint","wheelchair":"no"}},{"type":"node","id":700674247,"lat":-36.7398219,"lon":174.4201125,"tags":{"addr:street":"Boundary Road","leisure":"sports_centre","name":"Tree Adventures","operator":"Tree Adventures"}},{"type":"node","id":726922051,"lat":-37.0095841,"lon":174.574829,"tags":{"name":"Huia Lookout","tourism":"viewpoint"}},{"type":"node","id":766189252,"lat":-36.9606532,"lon":174.4633941,"tags":{"name":"The Gap Viewpoint","tourism":"viewpoint"}},{"type":"node","id":766189302,"lat":-36.9587486,"lon":174.4657852,"tags":{"name":"Keyhole Viewpoint","tourism":"viewpoint"}},{"type":"node","id":964686909,"lat":-37.0115392,"lon":174.9087503,"tags":{"leisure":"garden","name":"Rock Garden"}},{"type":"node","id":964687265,"lat":-37.0109027,"lon":174.9097671,"tags":{"leisure":"garden","name":"African Plants Gardens"}},{"type":"node","id":964716451,"lat":-37.1888289,"lon":174.8284876,"tags":{"leisure":"sports_centre","name":"Mauku Cricket Club"}},{"type":"node","id":964718450,"lat":-37.2109339,"lon":174.7354446,"tags":{"name":"Steel Mill Lookout","tourism":"viewpoint"}},{"type":"node","id":965827114,"lat":-37.2289047,"lon":174.8935794,"tags":{"name":"Pukekohe Hill","tourism":"viewpoint"}},{"type":"node","id":972043718,"lat":-36.6285897,"lon":174.7583574,"tags":{"leisure":"sports_centre","name":"Manly Sailing Club","sport":"sailing"}},{"type":"node","id":972094555,"lat":-36.7482856,"lon":175.5373467,"tags":{"name":"Mangagataururu","name:mi":"Mangagataururu","tourism":"viewpoint"}},{"type":"node","id":1138542268,"lat":-36.6891264,"lon":174.7521813,"tags":{"leisure":"sports_centre","name":"Sir Peter Blake Marine Education and Recreation Centre"}},{"type":"node","id":1225244269,"lat":-37.1581634,"lon":175.546091,"tags":{"leisure":"sports_centre","name":"Gun club","source":"LINZ","sport":"shooting"}},{"type":"node","id":1225321424,"lat":-37.0571695,"lon":174.9961874,"tags":{"leisure":"sports_centre","name":"Rifle range","source":"LINZ","sport":"shooting"}},{"type":"node","id":1593871943,"lat":-37.0668814,"lon":175.0904202,"tags":{"direction":"195","name":"Hūnua Falls Lookout","tourism":"viewpoint"}},{"type":"node","id":1609905748,"lat":-37.1326602,"lon":175.5349131,"tags":{"leisure":"sports_centre","name":"Thames Croquet Club","sport":"croquet"}},{"type":"node","id":1671363913,"lat":-37.1373281,"lon":175.5380902,"tags":{"name":"Birds Lookout","tourism":"viewpoint"}},{"type":"node","id":1682243324,"lat":-36.64249,"lon":175.53198,"tags":{"leisure":"park","name":"Coromandel State Forest Park","source":"LINZ & NZ Open GIS"}},{"type":"node","id":1692802231,"lat":-36.8438589,"lon":174.8640528,"tags":{"name":"Achilles Point Lookout","tourism":"viewpoint"}},{"type":"node","id":1709833048,"lat":-36.8332946,"lon":174.4252454,"tags":{"name":"Gannet colony","tourism":"viewpoint"}},{"type":"node","id":1728678288,"lat":-36.5519143,"lon":174.4947727,"tags":{"leisure":"sports_centre","name":"Makarau Scout Camp","source":"http://makarau.waitoru.org/"}},{"type":"node","id":2006136519,"lat":-36.9243976,"lon":174.566908,"tags":{"name":"Parkinsons Lookout","ref:linz:place_id":"4489","tourism":"viewpoint","wikidata":"Q119032739"}},{"type":"node","id":2100715705,"lat":-36.8559364,"lon":174.8454693,"tags":{"leisure":"sports_centre","name":"Eastern Suburbs Football Club","sport":"soccer"}},{"type":"node","id":2342888967,"lat":-37.092163,"lon":174.649309,"tags":{"name":"Fish ladder","tourism":"viewpoint"}},{"type":"node","id":2881830836,"lat":-36.9901446,"lon":175.5716833,"tags":{"name":"Square Kauri Tree","tourism":"viewpoint"}},{"type":"node","id":2882783171,"lat":-36.855688,"lon":174.7312413,"tags":{"branch":"24 Hour Fitness","brand":"Jetts Fitness","brand:wikidata":"Q24185346","leisure":"fitness_centre","name":"Jetts Fitness","short_name":"Jetts"}},{"type":"node","id":3021592973,"lat":-36.979033,"lon":175.0326709,"tags":{"name":"Clevedon Scenic Reserve Viewpoint","tourism":"viewpoint"}},{"type":"node","id":3169791124,"lat":-36.4198034,"lon":174.723442,"tags":{"leisure":"fitness_centre","name":"Fitness Hub"}},{"type":"node","id":3335801644,"lat":-36.777508,"lon":174.995645,"tags":{"name":"World War 2 Observation Post","tourism":"viewpoint"}},{"type":"node","id":3436746953,"lat":-36.9678847,"lon":174.7985721,"tags":{"leisure":"sports_centre","name":"Mangere Cosmopolitan Club Incorporated"}},{"type":"node","id":3658370785,"lat":-37.0179303,"lon":174.8639301,"tags":{"branch":"24 Hour Fitness","brand":"Jetts Fitness","brand:wikidata":"Q24185346","leisure":"fitness_centre","name":"Jetts Fitness","short_name":"Jetts"}},{"type":"node","id":3674684239,"lat":-36.9374243,"lon":174.874982,"tags":{"branch":"24 Hours","brand":"Jetts Fitness","brand:wikidata":"Q24185346","leisure":"fitness_centre","name":"Jetts Fitness","short_name":"Jetts"}},{"type":"node","id":3702691299,"lat":-36.7947687,"lon":174.6820318,"tags":{"description":"Walkway diverges to either lookout over harbour or stairs to the beach (at low tide)","name":"Amelia Place Lookout","tourism":"viewpoint"}},{"type":"node","id":3761238533,"lat":-36.7726745,"lon":174.5502259,"tags":{"leisure":"sports_centre","name":"Kumeu Gym and Indoor Sports Centre"}},{"type":"node","id":3782612108,"lat":-36.7498108,"lon":174.4229634,"tags":{"leisure":"sports_centre","name":"Horse Park"}},{"type":"node","id":3787131347,"lat":-37.2748208,"lon":175.489605,"tags":{"leisure":"sports_centre","name":"Hauraki Plains Netball Centre"}},{"type":"node","id":4064397753,"lat":-36.8648136,"lon":174.775287,"tags":{"leisure":"sports_centre","name":"Configure"}},{"type":"node","id":4192807807,"lat":-36.9063424,"lon":174.6608285,"tags":{"brand":"Snap Fitness","brand:wikidata":"Q7547254","leisure":"fitness_centre","name":"Snap Fitness"}},{"type":"node","id":4281458060,"lat":-36.8759752,"lon":174.7668509,"tags":{"name":"Wilkies Lookout","tourism":"viewpoint"}},{"type":"node","id":4295625191,"lat":-36.9900368,"lon":174.5686431,"tags":{"name":"Huia Dam Intake Tunnel ","tourism":"viewpoint"}},{"type":"node","id":4295678492,"lat":-36.9,"lon":174.7831479,"tags":{"name":"One Tree Hill Summit","tourism":"viewpoint"}},{"type":"node","id":4295685100,"lat":-36.836513,"lon":174.7588929,"tags":{"name":"Tank Farm Viewpoint","tourism":"viewpoint"}},{"type":"node","id":4295694795,"lat":-36.878076,"lon":174.7644332,"tags":{"direction":"360","name":"Mount Eden Summit","tourism":"viewpoint","wheelchair":"no"}},{"type":"node","id":4295694797,"lat":-36.840066,"lon":174.7556648,"tags":{"name":"Wynyard Quarter Metal Structure Viewpoint","tourism":"viewpoint"}},{"type":"node","id":4295694990,"lat":-36.8463872,"lon":174.9004924,"tags":{"name":"Musick Point Stairs Viewpoint","tourism":"viewpoint"}},{"type":"node","id":4358213510,"lat":-36.5351901,"lon":174.7099392,"tags":{"name":"Couldrey House Lookout","tourism":"viewpoint"}},{"type":"node","id":4382825390,"lat":-36.6135444,"lon":174.6805987,"tags":{"brand":"Snap Fitness","brand:wikidata":"Q7547254","brand:wikipedia":"en:Snap Fitness","leisure":"fitness_centre","name":"Snap Fitness","opening_hours":"24/7","wheelchair":"limited"}},{"type":"node","id":4551520173,"lat":-36.8363779,"lon":174.4717484,"tags":{"name":"Mokoroa Falls Lookout","tourism":"viewpoint"}},{"type":"node","id":4661731192,"lat":-36.8754523,"lon":174.7365608,"tags":{"addr:street":"McDonald Street","brand":"Anytime Fitness","brand:wikidata":"Q4778364","brand:wikipedia":"en:Anytime Fitness","leisure":"fitness_centre","name":"Anytime Fitness","opening_hours":"24/7"}},{"type":"node","id":4666730645,"lat":-36.9620891,"lon":174.9018207,"tags":{"leisure":"fitness_centre","name":"Zero 2 100"}},{"type":"node","id":4666730699,"lat":-36.9621246,"lon":174.9002159,"tags":{"leisure":"fitness_centre","name":"Premier Fitness"}},{"type":"node","id":4717617670,"lat":-36.723494,"lon":174.7048311,"tags":{"brand":"Snap Fitness","brand:wikidata":"Q7547254","leisure":"fitness_centre","name":"Snap Fitness","website":"https://www.snapfitness.com/nz/gyms/albany"}},{"type":"node","id":4760811292,"lat":-37.1954182,"lon":174.9070885,"tags":{"access":"customers","leisure":"swimming_pool","name":"Franklin Pool","sport":"swimming"}},{"type":"node","id":4855099677,"lat":-36.8661547,"lon":174.6296253,"tags":{"branch":"24 Hour Fitness","brand":"Jetts Fitness","brand:wikidata":"Q24185346","leisure":"fitness_centre","name":"Jetts Fitness","short_name":"Jetts"}},{"type":"node","id":4855100415,"lat":-36.8603343,"lon":174.6307631,"tags":{"leisure":"sports_centre","name":"Pins","sport":"tenpin"}},{"type":"node","id":4861537346,"lat":-36.7948642,"lon":174.7650536,"tags":{"leisure":"fitness_centre","name":"Just Workout"}},{"type":"node","id":4884576568,"lat":-36.8821796,"lon":174.7031408,"tags":{"name":"Oakley Creek Waterfall","tourism":"viewpoint"}},{"type":"node","id":4925897641,"lat":-36.8216207,"lon":174.6128531,"tags":{"brand":"CityFitness","brand:wikidata":"Q110923303","check_date":"2024-09-23","leisure":"fitness_centre","name":"CityFitness"}},{"type":"node","id":4940228127,"lat":-36.8978608,"lon":174.8086824,"tags":{"addr:city":"Auckland","addr:housenumber":"87","addr:postcode":"1051","addr:street":"Main Highway","branch":"Ellerslie","brand":"Anytime Fitness","leisure":"fitness_centre","name":"Anytime Fitness","not:brand:wikidata":"Q4778364","website":"https://www.anytimefitness.co.nz/"}},{"type":"node","id":4941696486,"lat":-36.8821207,"lon":174.7854059,"tags":{"branch":"24 Hour Fitness","brand":"Jetts Fitness","brand:wikidata":"Q24185346","leisure":"fitness_centre","name":"Jetts Fitness","short_name":"Jetts"}},{"type":"node","id":4943409460,"lat":-36.8746775,"lon":174.7368928,"tags":{"addr:city":"Auckland","addr:housenumber":"2A","addr:street":"Morningside Drive","leisure":"fitness_centre","name":"Health and Sports Fitness Club","website":"https://www.healthandsports.co.nz/"}},{"type":"node","id":4943409518,"lat":-36.9006085,"lon":174.7210616,"tags":{"addr:city":"Auckland","addr:housenumber":"190","addr:postcode":"1041","addr:street":"Stoddard Road","branch":"Mount Roskill","brand":"Jetts Fitness","brand:wikidata":"Q24185346","leisure":"fitness_centre","name":"Jetts Fitness","short_name":"Jetts","website":"https://www.jetts.co.nz/"}},{"type":"node","id":4952052122,"lat":-36.4943126,"lon":175.4210161,"tags":{"name":"Lookout","name:de":"Lookout","name:en":"Lookout","tourism":"viewpoint"}},{"type":"node","id":4956159235,"lat":-36.9082928,"lon":174.733558,"tags":{"addr:housenumber":"22","addr:street":"Stoddard Road","brand":"Snap Fitness","brand:wikidata":"Q7547254","brand:wikipedia":"en:Snap Fitness","leisure":"fitness_centre","name":"Snap Fitness","opening_hours":"24/7"}},{"type":"node","id":5029943795,"lat":-36.9410016,"lon":174.83989,"tags":{"branch":"Otahuhu","brand":"Jetts Fitness","brand:wikidata":"Q24185346","leisure":"fitness_centre","name":"Jetts Fitness","short_name":"Jetts"}},{"type":"node","id":5031773039,"lat":-36.8929914,"lon":174.7966419,"tags":{"brand":"Anytime Fitness","brand:wikidata":"Q4778364","brand:wikipedia":"en:Anytime Fitness","leisure":"fitness_centre","name":"Anytime Fitness","opening_hours":"24/7"}},{"type":"node","id":5031773042,"lat":-36.896296,"lon":174.8023146,"tags":{"addr:city":"Auckland","addr:housenumber":"23a","addr:postcode":"1040","addr:street":"Main Highway","leisure":"fitness_centre","name":"Bodi HQ","website":"https://bodihq.co.nz/"}},{"type":"node","id":5031826995,"lat":-36.910543,"lon":174.7755361,"tags":{"branch":"24 Hour Fitness","brand":"Jetts Fitness","brand:wikidata":"Q24185346","leisure":"fitness_centre","name":"Jetts Fitness","short_name":"Jetts"}},{"type":"node","id":5053006990,"lat":-37.0071936,"lon":174.8907452,"tags":{"leisure":"fitness_centre","name":"Fitness Plus","website":"https://fitnessplus.co.nz/"}},{"type":"node","id":5057312416,"lat":-36.7157537,"lon":174.7459164,"tags":{"brand":"Anytime Fitness","brand:wikidata":"Q4778364","brand:wikipedia":"en:Anytime Fitness","leisure":"fitness_centre","name":"Anytime Fitness","opening_hours":"24/7"}},{"type":"node","id":5057312537,"lat":-36.7173971,"lon":174.746537,"tags":{"brand":"Snap Fitness","brand:wikidata":"Q7547254","brand:wikipedia":"en:Snap Fitness","leisure":"fitness_centre","name":"Snap Fitness","website":"https://www.snapfitness.com/nz/gyms/browns-bay"}},{"type":"node","id":5057312543,"lat":-36.7165925,"lon":174.7457438,"tags":{"branch":"24 Hour Fitness","brand":"Jetts Fitness","brand:wikidata":"Q24185346","leisure":"fitness_centre","name":"Jetts Fitness","short_name":"Jetts"}},{"type":"node","id":5076414821,"lat":-36.7869681,"lon":174.8587937,"tags":{"name":"Crater View","tourism":"viewpoint"}},{"type":"node","id":5080681471,"lat":-36.8856771,"lon":174.7312845,"tags":{"addr:city":"Auckland","addr:housenumber":"5","addr:postcode":"1025","addr:street":"Wagener Place","addr:suburb":"Mount Albert","branch":"St Lukes","brand":"Jetts Fitness","brand:wikidata":"Q24185346","leisure":"fitness_centre","name":"Jetts Fitness","opening_hours":"24/7","phone":"+64 21 915 262","short_name":"Jetts","website":"https://www.jetts.co.nz/"}},{"type":"node","id":5116574427,"lat":-36.8630685,"lon":174.6476385,"tags":{"leisure":"fitness_centre","name":"Club Physical"}},{"type":"node","id":5177862269,"lat":-36.9008682,"lon":174.904975,"tags":{"leisure":"fitness_centre","name":"One Gym"}},{"type":"node","id":5177862275,"lat":-36.898933,"lon":174.9044131,"tags":{"brand":"Anytime Fitness","brand:wikidata":"Q4778364","leisure":"fitness_centre","name":"Anytime Fitness","opening_hours":"24/7"}},{"type":"node","id":5177862281,"lat":-36.8998794,"lon":174.9039444,"tags":{"branch":"24 Hour Fitness","brand":"Jetts Fitness","brand:wikidata":"Q24185346","leisure":"fitness_centre","name":"Jetts Fitness","short_name":"Jetts"}},{"type":"node","id":5211757545,"lat":-36.8245342,"lon":174.6474457,"tags":{"name":"Tumbledown Point","tourism":"viewpoint"}},{"type":"node","id":5215626697,"lat":-36.8916678,"lon":174.836397,"tags":{"addr:city":"Mt Wellington","addr:housenumber":"53","addr:postcode":"1072","addr:street":"Lunn Avenue","addr:unit":"Level 1","leisure":"fitness_centre","name":"Cel Fitness","opening_hours":"24/7","website":"https://www.simplyfit.co.nz/"}},{"type":"node","id":5215638890,"lat":-36.8871112,"lon":174.8445418,"tags":{"addr:city":"Auckland","addr:housenumber":"40","addr:postcode":"1072","addr:street":"Stonefields Avenue","addr:suburb":"Stonefields","addr:unit":"Shop 16","leisure":"fitness_centre","name":"Om Yoga","ref:linz:address_id":"1954213","sport":"yoga","website":"https://omyogastudio.co.nz/"}},{"type":"node","id":5237158395,"lat":-36.8767928,"lon":174.7677235,"tags":{"leisure":"garden","name":"Eden Garden","opening_hours":"Mo-Su 09:00-16:00","wikidata":"Q5336848"}},{"type":"node","id":5237396069,"lat":-36.9096805,"lon":174.6508398,"tags":{"addr:housenumber":"4/273","addr:street":"West Coast Road","leisure":"fitness_centre","name":"BBM Ultimate Fitness","opening_hours":"24/7"}},{"type":"node","id":5278860621,"lat":-36.9869703,"lon":174.8731307,"tags":{"addr:city":"Auckland","addr:housenumber":"20","addr:postcode":"2104","addr:street":"Lambie Drive","brand":"True Women's Gym","leisure":"fitness_centre","name":"True Women's Gym","website":"https://www.truewoman.co.nz/"}},{"type":"node","id":5290266551,"lat":-36.8838682,"lon":174.6761821,"tags":{"leisure":"sports_centre","name":"Uptown Bounce","sport":"trampoline"}},{"type":"node","id":5291156262,"lat":-37.0481836,"lon":174.9287032,"tags":{"brand":"Anytime Fitness","brand:wikidata":"Q4778364","brand:wikipedia":"en:Anytime Fitness","leisure":"fitness_centre","name":"Anytime Fitness","opening_hours":"24/7"}},{"type":"node","id":5291156269,"lat":-37.0482938,"lon":174.9277617,"tags":{"brand":"Snap Fitness","brand:wikidata":"Q7547254","brand:wikipedia":"en:Snap Fitness","leisure":"fitness_centre","name":"Snap Fitness"}},{"type":"node","id":5314339352,"lat":-36.9254914,"lon":174.9125496,"tags":{"addr:city":"Auckland","addr:housenumber":"309","addr:postcode":"2013","addr:street":"Botany Road","branch":"Botany","brand":"Jetts Fitness","brand:wikidata":"Q24185346","leisure":"fitness_centre","name":"Jetts Fitness","short_name":"Jetts"}},{"type":"node","id":5340052842,"lat":-36.9620789,"lon":174.8729092,"tags":{"addr:housenumber":"120","addr:street":"East Tāmaki Road","branch":"24 Hour Fitness","brand":"Jetts Fitness","brand:wikidata":"Q24185346","leisure":"fitness_centre","name":"Jetts Fitness","opening_hours":"24/7","short_name":"Jetts"}},{"type":"node","id":5360337921,"lat":-37.1913966,"lon":174.9048617,"tags":{"addr:housenumber":"5","addr:postcode":"2120","addr:street":"Cape Hill Road","internet_access":"wlan","leisure":"fitness_centre","name":"Creo fitness club","opening_hours":"24/7","phone":"+64 9 239 2194","website":"https://www.creofitness.co.nz/"}},{"type":"node","id":5362650952,"lat":-36.6151364,"lon":174.6781285,"tags":{"addr:housenumber":"16D","addr:street":"Wainui Road","addr:suburb":"Silverdale","leisure":"fitness_centre","name":"Studio Pilates","ref:linz:address_id":"620012","sport":"fitness"}},{"type":"node","id":5369757847,"lat":-36.8901927,"lon":175.0104149,"tags":{"leisure":"fitness_centre","name":"All Fit 24/7"}},{"type":"node","id":5369757849,"lat":-36.8902104,"lon":175.0102088,"tags":{"leisure":"fitness_centre","name":"Work it Out"}},{"type":"node","id":5420942222,"lat":-36.7197092,"lon":175.5137791,"tags":{"name":"Tokatea Lookout (John H. Lucas Lookout)","opening_hours":"24/7","tourism":"viewpoint"}},{"type":"node","id":5424431280,"lat":-37.1228822,"lon":175.0214914,"tags":{"leisure":"park","name":"National Miller Park"}},{"type":"node","id":5425997938,"lat":-36.8527906,"lon":174.7833096,"tags":{"addr:housenumber":"79a","addr:street":"Saint Georges Bay Road","addr:suburb":"Parnell","leisure":"fitness_centre","name":"Reform Fitness - Pilates"}},{"type":"node","id":5492543068,"lat":-36.9634424,"lon":174.8256152,"tags":{"access":"permissive","addr:housenumber":"14","addr:street":"Ferguson Street","addr:suburb":"Māngere East","fee":"yes","garden:type":"community","leisure":"garden","name":"Te Puna Oranga","name:mi":"Te Puna Oranga","operator":"MEFSC Inc","operator:type":"community","ref:linz:address_id":"1179918"}},{"type":"node","id":5594289987,"lat":-37.1039585,"lon":174.9462757,"tags":{"addr:housenumber":"2/69","addr:street":"Creek Street","addr:suburb":"Drury","leisure":"fitness_centre","name":"District 52 Crossfit","ref:linz:address_id":"1595365"}},{"type":"node","id":5683800310,"lat":-36.8988522,"lon":174.8473112,"tags":{"branch":"Mt Wellington","brand":"CityFitness","brand:wikidata":"Q110923303","leisure":"fitness_centre","name":"CityFitness"}},{"type":"node","id":5719141340,"lat":-36.8794452,"lon":174.851193,"tags":{"addr:housenumber":"107","addr:postcode":"1072","addr:street":"Felton Mathew Avenue","branch":"Saint John Gym","brand":"Jetts Fitness","brand:wikidata":"Q24185346","leisure":"fitness_centre","name":"Jetts Fitness","opening_hours":"24/7","short_name":"Jetts"}},{"type":"node","id":5792966085,"lat":-36.8656214,"lon":174.7642973,"tags":{"leisure":"fitness_centre","name":"BodyTech"}},{"type":"node","id":5828235585,"lat":-36.8704013,"lon":174.7758307,"tags":{"addr:city":"Auckland","addr:housenumber":"277/309","addr:postcode":"1023","addr:street":"Broadway","addr:suburb":"Newmarket","branch":"Newmarket","brand":"CityFitness","brand:wikidata":"Q110923303","leisure":"fitness_centre","name":"CityFitness"}},{"type":"node","id":5858677785,"lat":-36.88789,"lon":174.7476766,"tags":{"fee":"yes","leisure":"sports_centre","name":"Clip'n Climb","payment:cash":"yes","payment:debit_cards":"yes","sport":"climbing"}},{"type":"node","id":5901710188,"lat":-36.7889979,"lon":174.7692149,"tags":{"addr:city":"Auckland","addr:housenumber":"7","addr:postcode":"0622","addr:street":"Auburn Street","brand":"Jetts Fitness","brand:wikidata":"Q24185346","leisure":"fitness_centre","name":"Jetts Fitness","opening_hours":"24/7","short_name":"Jetts","website":"https://www.jetts.co.nz/"}},{"type":"node","id":5913292061,"lat":-36.8118223,"lon":174.7246229,"tags":{"addr:city":"Auckland","addr:housenumber":"35","addr:postcode":"0626","addr:street":"Mokoia Road","leisure":"fitness_centre","name":"Club Physical","website":"https://www.clubphysical.co.nz/locations/birkenhead/"}},{"type":"node","id":5942223458,"lat":-36.9114327,"lon":174.676373,"tags":{"leisure":"fitness_centre","name":"Just Workout!"}},{"type":"node","id":6033378185,"lat":-36.8463077,"lon":174.7616259,"tags":{"addr:housenumber":"80","addr:postcode":"1010","addr:street":"Wyndham Street","internet_access":"wlan","leisure":"fitness_centre","name":"jets","opening_hours":"24/7","phone":"+64 9 215 8972","website":"https://www.jetts.co.nz/"}},{"type":"node","id":6348838685,"lat":-36.850528,"lon":174.7583637,"tags":{"leisure":"fitness_centre","name":"Core collective"}},{"type":"node","id":6469222494,"lat":-36.7314221,"lon":174.7142573,"tags":{"email":"info@clipnclimbnorthshore.co.nz","leisure":"sports_centre","name":"Clip 'N Climb North Shore","opening_hours":"Mo-We,PH off; Th 15:30-17:30; Fr 15:30-18:00; Sa,Su 09:30-17:00","phone":"+64 9 447 1428","sport":"climbing","website":"https://clipnclimbnorthshore.co.nz/"}},{"type":"node","id":6680786169,"lat":-36.8627914,"lon":174.8095018,"tags":{"addr:city":"Auckland","addr:housenumber":"234B","addr:postcode":"1050","addr:street":"Orakei Road","addr:suburb":"Remuera","cuisine":"chicken","leisure":"fitness_centre","name":"OYF Far Infrared Yoga & Fitness Remuera","sport":"yoga","website":"https://oyf.fit/remuera/"}},{"type":"node","id":6704808187,"lat":-36.9083864,"lon":174.7559599,"tags":{"addr:city":"Auckland","addr:housenumber":"540","addr:postcode":"1042","addr:street":"Mount Albert Road","addr:suburb":"Three Kings","branch":"Three Kings","brand":"CityFitness","brand:wikidata":"Q110923303","leisure":"fitness_centre","name":"CityFitness","phone":"+64 9 414 3977","sport":"fitness","website":"https://www.cityfitness.co.nz/"}},{"type":"node","id":6853045186,"lat":-36.8066466,"lon":174.8456899,"tags":{"name":"Flax Point","tourism":"viewpoint"}},{"type":"node","id":6865091996,"lat":-36.4960832,"lon":174.6029687,"tags":{"name":"Sugar Loaf","tourism":"viewpoint"}},{"type":"node","id":7005548146,"lat":-36.8999477,"lon":174.6526079,"tags":{"brand":"Anytime Fitness","brand:wikidata":"Q4778364","leisure":"fitness_centre","level":"1","name":"Anytime Fitness","opening_hours":"24/7"}},{"type":"node","id":7147631885,"lat":-36.7455268,"lon":175.4810204,"tags":{"name":"Kauri tree viewpoint","tourism":"viewpoint"}},{"type":"node","id":7204950919,"lat":-36.9471034,"lon":174.6069609,"tags":{"alt_name":"Waitākere Ranges Regional Park Picture Frame","alt_name:cs":"Obrazový rám regionálního parku Pohoří Waitākere","alt_name:en":"Waitākere Ranges Regional Park Picture Frame","direction":"177","name":"Arataki Visitor Centre Picture Frame","name:cs":"Obrazový rám návštěvního centra Arataki","name:en":"Arataki Visitor Centre Picture Frame","tourism":"viewpoint","wheelchair":"yes"}},{"type":"node","id":7204951956,"lat":-36.6096879,"lon":174.8202367,"tags":{"direction":"140","name":"Shakespear Regional Park Picture Frame","name:cs":"Obrazový rám Shakespearova regionálního parku","name:en":"Shakespear Regional Park Picture Frame","tourism":"viewpoint"}},{"type":"node","id":7204964987,"lat":-37.0675603,"lon":175.0894953,"tags":{"direction":"165","name":"Hūnua Ranges Regional Park Picture Frame","name:cs":"Obrazový rám regionálního parku Pohoří Hūnua","name:en":"Hūnua Ranges Regional Park Picture Frame","tourism":"viewpoint"}},{"type":"node","id":7204967316,"lat":-36.8863149,"lon":174.520334,"tags":{"alt_name":"Waitākere Ranges Regional Park Picture Frame","alt_name:cs":"Obrazový rám regionálního parku Pohoří Waitākere","alt_name:en":"Waitākere Ranges Regional Park Picture Frame","direction":"130","name":"Cascade Kauri Picture Frame","name:cs":"Obrazový rám Cascade Kauri","name:en":"Cascade Kauri Picture Frame","tourism":"viewpoint","wheelchair":"yes"}},{"type":"node","id":7205006422,"lat":-36.5102886,"lon":174.7217984,"tags":{"direction":"25","name":"Mahurangi Regional Park Picture Frame","name:cs":"Obrazový rám regionálního parku Mahurangi","name:en":"Mahurangi Regional Park Picture Frame","tourism":"viewpoint"}},{"type":"node","id":7205006423,"lat":-36.9737156,"lon":175.2549788,"tags":{"direction":"340","name":"Tāpapakanga Regional Park Picture Frame","name:cs":"Obrazový rám regionálního parku Tāpapakanga","name:en":"Tāpapakanga Regional Park Picture Frame","tourism":"viewpoint"}},{"type":"node","id":7205006424,"lat":-36.5316556,"lon":174.7132545,"tags":{"direction":"70","name":"Wenderholm Regional Park Picture Frame","name:cs":"Obrazový rám regionálního parku Wenderholm","name:en":"Wenderholm Regional Park Picture Frame","tourism":"viewpoint"}},{"type":"node","id":7205006425,"lat":-36.6830031,"lon":174.7494405,"tags":{"direction":"5","name":"Long Bay Regional Park Picture Frame","name:cs":"Obrazový rám regionálního parku Long Bay","name:en":"Long Bay Regional Park Picture Frame","tourism":"viewpoint"}},{"type":"node","id":7205006426,"lat":-37.0892094,"lon":174.6524978,"tags":{"direction":"130","fixme":"Location approximate","name":"Āwhitu Regional Park Picture Frame","name:cs":"Obrazový rám regionálního parku Āwhitu","name:en":"Āwhitu Regional Park Picture Frame","tourism":"viewpoint"}},{"type":"node","id":7205006427,"lat":-36.9440124,"lon":174.7610019,"tags":{"direction":"230","name":"Ambury Regional Park Picture Frame","name:cs":"Obrazový rám regionálního parku Ambury","name:en":"Ambury Regional Park Picture Frame","tourism":"viewpoint"}},{"type":"node","id":7207443286,"lat":-36.5994353,"lon":175.5501529,"tags":{"name":"Little Bay Lookout","tourism":"viewpoint"}},{"type":"node","id":7207453785,"lat":-36.6266221,"lon":175.5247458,"tags":{"name":"Matamataharakeke","name:mi":"Matamataharakeke","tourism":"viewpoint"}},{"type":"node","id":7252069156,"lat":-36.9075488,"lon":174.7127263,"tags":{"leisure":"swimming_pool","name":"Dean Greenwood Swim School","sport":"swimming"}},{"type":"node","id":7391290711,"lat":-36.8832072,"lon":174.7647331,"tags":{"access":"permissive","garden:type":"community","leisure":"garden","name":"Mount Eden Community Garden","website":"https://www.mounteden.co.nz/whats-on/events/g-1-9na65c0gebtsvtv9j8g65rp23s_201805130200"}},{"type":"node","id":7470134285,"lat":-36.5993931,"lon":174.6985549,"tags":{"name":"Orewa River","name:de":"Orewa Fluss","name:en":"Orewa River","tourism":"viewpoint"}},{"type":"node","id":7572273155,"lat":-36.9896465,"lon":174.8786632,"tags":{"leisure":"trampoline_park","name":"GravityNZ"}},{"type":"node","id":7681846038,"lat":-37.0066156,"lon":174.7822826,"tags":{"access":"customers","brand":"McDonald's","brand:wikidata":"Q38076","brand:wikipedia":"en:McDonald's","leisure":"playground","name":"McDonald's PlayPlace"}},{"type":"node","id":7686044711,"lat":-37.1364058,"lon":174.6915533,"tags":{"name":"Wilsons Beach","natural":"beach"}},{"type":"node","id":7686044712,"lat":-37.1353451,"lon":174.6954826,"tags":{"name":"Irwins Beach","natural":"beach"}},{"type":"node","id":7686044713,"lat":-37.1344376,"lon":174.6995956,"tags":{"name":"Halls Beach","natural":"beach"}},{"type":"node","id":7686044714,"lat":-37.1338005,"lon":174.7036163,"tags":{"name":"Knights Beach","natural":"beach"}},{"type":"node","id":7686044715,"lat":-37.1337133,"lon":174.7085072,"tags":{"name":"Hoskins Beach","natural":"beach"}},{"type":"node","id":7686044716,"lat":-37.1336538,"lon":174.7114371,"tags":{"name":"Bradleys Beach","natural":"beach"}},{"type":"node","id":7791472424,"lat":-36.8551035,"lon":174.7342017,"tags":{"leisure":"fitness_centre","name":"Basecamp Power Yoga","sport":"yoga"}},{"type":"node","id":7834052400,"lat":-36.7522704,"lon":174.7548863,"tags":{"name":"14th Tee Lookout","tourism":"viewpoint"}},{"type":"node","id":7870835856,"lat":-37.0121774,"lon":174.9082086,"tags":{"leisure":"garden","name":"Conifer Garden"}},{"type":"node","id":7870835857,"lat":-37.0126682,"lon":174.9085158,"tags":{"leisure":"garden","name":"Herb Garden"}},{"type":"node","id":7870835858,"lat":-37.0128908,"lon":174.9084104,"tags":{"leisure":"garden","name":"Salvias"}},{"type":"node","id":7870835859,"lat":-37.0119025,"lon":174.9104485,"tags":{"leisure":"garden","name":"Podocarp Valley"}},{"type":"node","id":7870835860,"lat":-37.0096223,"lon":174.9089022,"tags":{"leisure":"garden","name":"Orchard"}},{"type":"node","id":7870835861,"lat":-37.0090722,"lon":174.9089462,"tags":{"leisure":"garden","name":"Spring Blossom Valley"}},{"type":"node","id":7870835862,"lat":-37.0083872,"lon":174.9087331,"tags":{"leisure":"garden","name":"Camellia Garden"}},{"type":"node","id":7870835863,"lat":-37.0076581,"lon":174.9087898,"tags":{"leisure":"garden","name":"Magnolia Garden"}},{"type":"node","id":7870835864,"lat":-37.0087568,"lon":174.9064452,"tags":{"leisure":"garden","name":"Rose Garden"}},{"type":"node","id":7870835865,"lat":-37.0100445,"lon":174.9066236,"tags":{"leisure":"garden","name":"Urban Trees"}},{"type":"node","id":7870835867,"lat":-37.009419,"lon":174.9039342,"tags":{"leisure":"garden","name":"Palm Garden"}},{"type":"node","id":7870835868,"lat":-37.0075739,"lon":174.9011911,"tags":{"leisure":"garden","name":"Gondwana Arboretum"}},{"type":"node","id":7870835870,"lat":-37.0110569,"lon":174.9058253,"tags":{"leisure":"garden","name":"Native Plant Ideas"}},{"type":"node","id":7870835871,"lat":-37.0110956,"lon":174.906134,"tags":{"leisure":"garden","name":"Perennials Garden"}},{"type":"node","id":7870835872,"lat":-37.0118572,"lon":174.9055039,"tags":{"leisure":"garden","name":"Harakeke Collection"}},{"type":"node","id":7870835873,"lat":-37.0118354,"lon":174.9063443,"tags":{"leisure":"garden","name":"Threatened Native Plants"}},{"type":"node","id":7870835874,"lat":-37.0122556,"lon":174.906541,"tags":{"leisure":"garden","name":"Edible Garden"}},{"type":"node","id":7870835875,"lat":-37.0129565,"lon":174.9060112,"tags":{"leisure":"garden","name":"Native Plant ID Trail"}},{"type":"node","id":7921454974,"lat":-37.0381842,"lon":174.9141619,"tags":{"leisure":"fitness_centre","name":"Fit60"}},{"type":"node","id":8041302747,"lat":-36.9891436,"lon":174.8804021,"tags":{"brand":"Anytime Fitness","brand:wikidata":"Q4778364","brand:wikipedia":"en:Anytime Fitness","leisure":"fitness_centre","name":"Anytime Fitness","opening_hours":"24/7"}},{"type":"node","id":8149755488,"lat":-36.9080008,"lon":174.6376345,"tags":{"leisure":"sports_centre","name":"Vertical Adventures","panoramax":"9b2a1348-5c83-4142-bc37-841809d42b18","phone":"+64 9 818 3038","sport":"climbing","website":"https://verticaladventures.co.nz/","wikidata":"Q117818120"}},{"type":"node","id":8165683275,"lat":-36.8694732,"lon":174.7496257,"tags":{"addr:city":"Auckland","addr:housenumber":"348","addr:postcode":"1021","addr:street":"New North Road","branch":"Mt Eden","brand":"F45 Training","brand:wikidata":"Q64390973","leisure":"fitness_centre","level":"1","name":"F45 Training","short_name":"F45","website":"https://f45training.co.nz/"}},{"type":"node","id":8165683280,"lat":-36.8705508,"lon":174.7480634,"tags":{"addr:city":"Auckland","addr:housenumber":"399","addr:street":"New North Road","brand":"Habitat for Fitness","leisure":"fitness_centre","name":"Habitat for Fitness","sport":"fitness;yoga","website":"https://habitatforfitness.co.nz/"}},{"type":"node","id":8226178275,"lat":-36.870035,"lon":174.711109,"tags":{"leisure":"fitness_centre","name":"Flex Fitness"}},{"type":"node","id":8305091966,"lat":-36.8116797,"lon":174.7259581,"tags":{"leisure":"fitness_centre","name":"Fitness Now"}},{"type":"node","id":8305091972,"lat":-36.8115608,"lon":174.724153,"tags":{"leisure":"fitness_centre","name":"JustWorkout"}},{"type":"node","id":8322342298,"lat":-36.8645437,"lon":174.7727191,"tags":{"leisure":"fitness_centre","name":"5 Points Gym","phone":"+64 9 303 4323"}},{"type":"node","id":8322766033,"lat":-36.8660009,"lon":174.7781307,"tags":{"addr:city":"Auckland","addr:housenumber":"28","addr:street":"Davis Crescent","email":"info@bodytorque.co.nz","leisure":"fitness_centre","name":"Body Torque","phone":"+64 21 808 210","website":"https://bodytorque.co.nz/"}},{"type":"node","id":8332332028,"lat":-36.4954098,"lon":174.4211655,"tags":{"name":"Mataia Point","tourism":"viewpoint"}},{"type":"node","id":8332338596,"lat":-36.4848958,"lon":174.4160198,"tags":{"name":"Huikarokaro Pā","name:mi":"Huikarokaro Pā","tourism":"viewpoint"}},{"type":"node","id":8332349194,"lat":-36.4938337,"lon":174.4197924,"tags":{"name":"Mataia Bay","tourism":"viewpoint"}},{"type":"node","id":8332570996,"lat":-36.8643762,"lon":174.7767154,"tags":{"brand":"CrossFit","brand:wikidata":"Q2072840","leisure":"fitness_centre","name":"CrossFit","phone":"+64 21 850 168","website":"https://crossfitnewmarket.co.nz/"}},{"type":"node","id":8336121631,"lat":-36.8658817,"lon":174.7781648,"tags":{"addr:city":"Auckland","addr:street":"Davis Crescent","leisure":"fitness_centre","name":"Refine Health","opening_hours":"Mo-Th 07:30-18:00; Fr 08:00-16:00","phone":"+64 21 106 5981;+64 9 520 1832;+64 9 354 4427"}},{"type":"node","id":8336121632,"lat":-36.8643797,"lon":174.7769355,"tags":{"brand":"F45 Training","brand:wikidata":"Q64390973","leisure":"fitness_centre","name":"F45 Training","phone":"+64 274 052 856","short_name":"F45","website":"https://f45training.co.nz/newmarket/home"}},{"type":"node","id":8336121642,"lat":-36.8648004,"lon":174.7751251,"tags":{"addr:housenumber":"96B","addr:street":"Carlton Gore Road","leisure":"fitness_centre","name":"Flex Fitness","opening_hours":"24/7","phone":"+64 9 522 4522","website":"https://flexfitnessgym.co.nz/gym-locations/auckland/newmarket/"}},{"type":"node","id":8340620506,"lat":-36.8985225,"lon":174.8458055,"tags":{"addr:housenumber":"517","addr:street":"Mount Wellington Highway","leisure":"fitness_centre","name":"Combined Fitness"}},{"type":"node","id":8347161082,"lat":-36.8647446,"lon":174.7776914,"tags":{"leisure":"fitness_centre","name":"Kungfu Gym","phone":"+64 210 880 5327","website":"https://www.facebook.com/KFMAA/"}},{"type":"node","id":8347161106,"lat":-36.867677,"lon":174.777706,"tags":{"leisure":"fitness_centre","name":"Mahi Yoga","sport":"yoga","website":"https://mahiyoga.co.nz/"}},{"type":"node","id":8358973878,"lat":-36.7471413,"lon":174.7358945,"tags":{"addr:street":"Constellation Drive","branch":"Constellation Drive","brand":"Anytime Fitness","brand:wikidata":"Q4778364","internet_access":"wlan","leisure":"fitness_centre","level":"0","name":"Anytime Fitness","official_name":"Anytime Fitness Constellation Drive","opening_hours":"24/7","phone":"+64 21 165 9405","website":"https://www.anytimefitness.co.nz/gyms/nz-1016/auckland-north-island-0632/"}},{"type":"node","id":8381737688,"lat":-36.8674866,"lon":174.7742003,"tags":{"leisure":"fitness_centre","name":"Reform Fitness Pilates","phone":"+64 27 200 5121","website":"https://reformfitness.co.nz/"}},{"type":"node","id":8382378822,"lat":-36.8644625,"lon":174.777537,"tags":{"leisure":"fitness_centre","name":"Southern Latitude Crossfit","phone":"+64 21 246 5622","website":"https://www.southernlatitudecrossfit.co.nz/"}},{"type":"node","id":8382378832,"lat":-36.8681015,"lon":174.7746144,"tags":{"leisure":"fitness_centre","name":"Studio Box","phone":"+64 9 200 1560","website":"https://www.studio-box.co/"}},{"type":"node","id":8382378834,"lat":-36.8701431,"lon":174.7772767,"tags":{"addr:housenumber":"L 1 / 255","addr:street":"Broadway","check_date":"2024-10-13","leisure":"fitness_centre","level":"1","name":"Studio Pilates","phone":"+64 27 317 2880","website":"https://www.studiopilates.com/studios/newmarket/"}},{"type":"node","id":8382378848,"lat":-36.8644888,"lon":174.7766484,"tags":{"leisure":"fitness_centre","name":"Sweat Yoga","phone":"+64 27 535 3171","sport":"yoga","website":"https://www.sweatyoga.co.nz/"}},{"type":"node","id":8386746018,"lat":-36.6280572,"lon":174.7330331,"tags":{"brand":"Anytime Fitness","brand:wikidata":"Q4778364","brand:wikipedia":"en:Anytime Fitness","internet_access":"wlan","leisure":"fitness_centre","name":"Anytime Fitness","opening_hours":"24/7"}},{"type":"node","id":8421891377,"lat":-36.9119184,"lon":174.7745874,"tags":{"addr:city":"Auckland","addr:housenumber":"711","addr:postcode":"1023","addr:street":"Mount Albert Road","branch":"Royal Oak","brand":"Snap Fitness","brand:wikidata":"Q7547254","brand:wikipedia":"en:Snap Fitness","leisure":"fitness_centre","name":"Snap Fitness","opening_hours":"24/7","phone":"+64 9 624 0589","sport":"fitness","website":"https://www.snapfitnessnewzealand.nz/royal-oak"}},{"type":"node","id":8526688122,"lat":-36.8482573,"lon":174.7537576,"tags":{"contact:facebook":"https://www.facebook.com/pages/Kcore-Pilates-Studio/953493328112242","contact:instagram":"https://instagram.com/kcore_pilates/","email":"info@kcorepilates.co.nz","leisure":"fitness_centre","name":"Kcöre Pilates","opening_hours":"\"on appointment\"","phone":"+64 21 528 431","sport":"pilates","website":"https://www.kcorepilates.co.nz/"}},{"type":"node","id":8558823545,"lat":-36.8600664,"lon":174.7534018,"tags":{"addr:city":"Auckland","addr:housenumber":"LG1/4","addr:postcode":"1011","addr:street":"Newton Road","addr:suburb":"Grey Lynn","leisure":"fitness_centre","level":"LG1","name":"Vision Personal Training Ponsonby","opening_hours":"Mo-Th 06:00-20:00; Sa 07:00-12:00","opening_hours:covid19":"restricted","phone":"+64 3 936 0416","ref:linz:address_id":"3087325","sport":"fitness;exercise","website":"https://www.visionpersonaltraining.com/our-studios/ponsonby"}},{"type":"node","id":8592325958,"lat":-36.8293835,"lon":174.8115927,"tags":{"direction":"150","historic":"ruins","name":"Minefield Observation Post","ruins":"military","tourism":"viewpoint"}},{"type":"node","id":8723706175,"lat":-36.8499632,"lon":174.764376,"tags":{"addr:city":"Auckland","addr:housenumber":"239","addr:postcode":"1010","addr:street":"Queen Street","addr:suburb":"Auckland Central","branch":"Queen Street","brand":"CityFitness","brand:wikidata":"Q110923303","building:flats":"38","leisure":"fitness_centre","name":"CityFitness","ref:linz:address_id":"stack(1123440,3080089-3080125)"}},{"type":"node","id":8813321418,"lat":-36.848533,"lon":174.7862756,"tags":{"direction":"0","name":"Fred Ambler Lookout","name:en":"Fred Ambler Lookout","name:etymology:wikidata":"Q57584973","tourism":"viewpoint"}},{"type":"node","id":8835036069,"lat":-36.9992884,"lon":174.7893947,"tags":{"brand":"Jetts Fitness","brand:wikidata":"Q24185346","check_date":"2026-01-10","leisure":"fitness_centre","name":"Jetts Fitness","short_name":"Jetts"}},{"type":"node","id":8981769092,"lat":-36.8499489,"lon":174.8692295,"tags":{"leisure":"fitness_centre","name":"RAW Ener-CHI","personal_trainer":"yes","sauna":"no","swimming_pool":"no"}},{"type":"node","id":9247317117,"lat":-36.6268223,"lon":174.6728771,"tags":{"brand":"F45 Training","brand:wikidata":"Q64390973","leisure":"fitness_centre","name":"F45 Training","short_name":"F45"}},{"type":"node","id":9347662129,"lat":-36.9000402,"lon":174.8043289,"tags":{"brand":"Snap Fitness","brand:wikidata":"Q7547254","leisure":"fitness_centre","name":"Snap Fitness","opening_hours":"24/7"}},{"type":"node","id":9378225441,"lat":-36.8757165,"lon":174.7324983,"tags":{"leisure":"fitness_centre","name":"Cocoon Yoga"}},{"type":"node","id":9380732547,"lat":-36.8580436,"lon":174.7473897,"tags":{"leisure":"sports_centre","name":"Megazone","sport":"laser_tag"}},{"type":"node","id":9470748554,"lat":-36.9025778,"lon":174.6898288,"tags":{"addr:city":"Auckland","addr:housenumber":"2171","addr:postcode":"0600","addr:street":"Great North Road","addr:suburb":"Avondale","brand":"Jetts Fitness","brand:wikidata":"Q24185346","leisure":"fitness_centre","name":"Jetts Fitness","opening_hours":"24/7","phone":"+64 21 405 012","short_name":"Jetts","website":"https://www.jetts.co.nz/clubs/new-lynn/"}},{"type":"node","id":9505409527,"lat":-36.8848533,"lon":174.7309855,"tags":{"brand":"CityFitness","brand:wikidata":"Q110923303","leisure":"fitness_centre","name":"CityFitness"}},{"type":"node","id":9538604693,"lat":-36.8200567,"lon":175.1138203,"tags":{"ele":"155","name":"Puke ō kai","name:mi":"Puke ō kai","natural":"peak","tourism":"viewpoint"}},{"type":"node","id":9584095670,"lat":-36.8426377,"lon":174.7559751,"tags":{"leisure":"fitness_centre","name":"Studio Pilates","sport":"pilates","website":"https://www.studiopilates.com/studios/wynyardquarter/"}},{"type":"node","id":9586909019,"lat":-36.8847986,"lon":174.7383441,"tags":{"leisure":"fitness_centre","name":"Thai Kickboxing"}},{"type":"node","id":9593322697,"lat":-36.971476,"lon":174.8604812,"tags":{"addr:city":"Auckland","addr:housenumber":"217","addr:postcode":"2025","addr:street":"Great South Road","addr:suburb":"Papatoetoe","branch":"Papatoetoe","brand":"CityFitness","brand:wikidata":"Q110923303","leisure":"fitness_centre","name":"CityFitness","opening_hours":"24/7","phone":"+64 9 930 7585"}},{"type":"node","id":9596382990,"lat":-36.8692402,"lon":174.7753128,"tags":{"addr:city":"Auckland","addr:housenumber":"2","addr:postcode":"1023","addr:street":"Gillies Avenue","addr:suburb":"Newmarket","branch":"Newmarket","brand":"Anytime Fitness","brand:wikidata":"Q4778364","brand:wikipedia":"en:Anytime Fitness","leisure":"fitness_centre","name":"Anytime Fitness","opening_hours":"24/7"}},{"type":"node","id":9598395090,"lat":-36.8470327,"lon":174.765501,"tags":{"addr:city":"Auckland","addr:housenumber":"151","addr:street":"Queen Street","leisure":"fitness_centre","level":"8","name":"One Five One Health Club","website":"https://www.onefiveone.co.nz/"}},{"type":"node","id":9598395091,"lat":-36.8450798,"lon":174.7719224,"tags":{"addr:city":"Auckland","addr:housenumber":"2","addr:street":"Beach Road","leisure":"fitness_centre","name":"Lifestyle Fitness","website":"https://lifestylefitness.co.nz"}},{"type":"node","id":9598395092,"lat":-36.8572015,"lon":174.7636065,"tags":{"addr:city":"Auckland","addr:housenumber":"105","addr:street":"Symonds Street","branch":"Auckland CBD","leisure":"fitness_centre","name":"Flex Fitness"}},{"type":"node","id":9598401316,"lat":-36.9820341,"lon":174.7799639,"tags":{"addr:city":"Auckland","addr:housenumber":"4","addr:street":"Pavilion Drive","addr:suburb":"Māngere","branch":"Airport Oaks / Mangere","leisure":"fitness_centre","name":"Xcel Fitness","ref:linz:address_id":"3094404"}},{"type":"node","id":9598490675,"lat":-36.9280875,"lon":174.9009205,"tags":{"addr:city":"Auckland","addr:housenumber":"335","addr:postcode":"2013","addr:street":"Ti Rakau Drive","addr:suburb":"Burswood","branch":"Botany","leisure":"fitness_centre","name":"Flex Fitness","ref:linz:address_id":"3093896"}},{"type":"node","id":9598517034,"lat":-36.9346383,"lon":174.9132094,"tags":{"addr:city":"Auckland","addr:housenumber":"588","addr:postcode":"2016","addr:street":"Chapel Road","branch":"Botany","brand":"CityFitness","brand:wikidata":"Q110923303","leisure":"fitness_centre","name":"CityFitness"}},{"type":"node","id":9598517036,"lat":-36.9650421,"lon":174.9023739,"tags":{"addr:city":"Auckland","addr:housenumber":"277","addr:postcode":"2016","addr:street":"Te Irirangi Drive","branch":"Botany Junction","brand":"Jetts Fitness","brand:wikidata":"Q24185346","leisure":"fitness_centre","name":"Jetts Fitness","short_name":"Jetts"}},{"type":"node","id":9598599742,"lat":-36.8944493,"lon":174.9319228,"tags":{"addr:city":"Auckland","addr:housenumber":"87A","addr:postcode":"2014","addr:street":"Picton Street","branch":"Howick","brand":"Jetts Fitness","brand:wikidata":"Q24185346","leisure":"fitness_centre","name":"Jetts Fitness","short_name":"Jetts"}},{"type":"node","id":9598651456,"lat":-36.89644,"lon":174.88078,"tags":{"addr:city":"Auckland","addr:housenumber":"6","addr:postcode":"2012","addr:street":"Oleander Point","leisure":"fitness_centre","name":"Peak for Life","website":"https://www.peakforlife.co.nz"}},{"type":"node","id":9598668760,"lat":-36.9018104,"lon":174.9257971,"tags":{"addr:city":"Auckland","addr:housenumber":"180","addr:postcode":"2014","addr:street":"Wellington Street","addr:suburb":"Howick","branch":"Howick","brand":"Flex Fitness","leisure":"fitness_centre","name":"Flex Fitness","ref:linz:address_id":"3095279"}},{"type":"node","id":9602014614,"lat":-36.9868655,"lon":174.8802036,"tags":{"addr:city":"Auckland","addr:housenumber":"613-615","addr:postcode":"2023","addr:street":"Great South Road","branch":"Manukau","brand":"Snap Fitness","brand:wikidata":"Q7547254","leisure":"fitness_centre","name":"Snap Fitness","opening_hours":"24/7","website":"https://www.snapfitness.com/nz/gyms/snapfitnessmanukau"}},{"type":"node","id":9602014615,"lat":-36.9887258,"lon":174.8723985,"tags":{"branch":"Manukau","brand":"Jetts Fitness","brand:wikidata":"Q24185346","leisure":"fitness_centre","name":"Jetts Fitness","opening_hours":"24/7","short_name":"Jetts"}},{"type":"node","id":9602014616,"lat":-36.9881255,"lon":174.8735957,"tags":{"addr:city":"Auckland","addr:housenumber":"28B","addr:street":"Lambie Drive","brand":"Fikaa","leisure":"fitness_centre","name":"Gym Fikaa","opening_hours":"24/7","website":"https://www.fikaa.nz/"}},{"type":"node","id":9602019775,"lat":-36.9854596,"lon":174.8777609,"tags":{"addr:city":"Auckland","addr:housenumber":"5B","addr:street":"Ryan Place","brand":"Fitness Now","leisure":"fitness_centre","name":"Fitness Now","website":"https://www.fitnessnow.co.nz/"}},{"type":"node","id":9602019776,"lat":-36.9841046,"lon":174.8762251,"tags":{"addr:city":"Auckland","addr:housenumber":"16","addr:postcode":"2104","addr:street":"Puhinui Road","leisure":"fitness_centre","name":"ShedX","website":"https://www.shedx.co.nz/"}},{"type":"node","id":9602019777,"lat":-37.0011968,"lon":174.8774392,"tags":{"addr:city":"Auckland","addr:housenumber":"25","addr:street":"Druces Road","brand":"Supercity Fitness","leisure":"fitness_centre","name":"Supercity Fitness","website":"https://www.supercityfitness.co.nz/"}},{"type":"node","id":9602022717,"lat":-36.9892378,"lon":174.876833,"tags":{"addr:city":"Auckland","addr:housenumber":"40c","addr:postcode":"2014","addr:street":"Cavendish Drive","brand":"Full Power Fitness","leisure":"fitness_centre","name":"Full Power Fitness","opening_hours":"24/7","website":"https://www.fullpowerfitness.co.nz/"}},{"type":"node","id":9602022718,"lat":-36.9875806,"lon":174.8771844,"tags":{"addr:city":"Auckland","addr:housenumber":"5/5","addr:postcode":"2014","addr:street":"Jack Conway Avenue","branch":"Manukau","brand":"Xcel Fitness","leisure":"fitness_centre","name":"Xcel Fitness","website":"https://www.xcelfitness.co.nz/"}},{"type":"node","id":9602022821,"lat":-37.0034159,"lon":174.87777,"tags":{"addr:city":"Auckland","addr:housenumber":"8/4","addr:street":"Kellow Place","branch":"Zen","brand":"CrossFit","brand:wikidata":"Q2072840","leisure":"fitness_centre","name":"CrossFit","website":"https://www.crossfitzen.co.nz/"}},{"type":"node","id":9602022822,"lat":-36.9948248,"lon":174.8503198,"tags":{"addr:city":"Auckland","addr:housenumber":"37","addr:street":"Noel Burnside Road","branch":"Manukau","brand":"FitMumz","leisure":"fitness_centre","name":"FitMumz","website":"https://fitmumz.co.nz/"}},{"type":"node","id":9602062943,"lat":-37.0603606,"lon":174.941631,"tags":{"addr:city":"Auckland","addr:housenumber":"18","addr:street":"O'Shannessey Street","brand":"Crush Fit","leisure":"fitness_centre","name":"Crush Fit","website":"https://www.crushfit.co.nz/"}},{"type":"node","id":9602062944,"lat":-37.0602782,"lon":174.9431762,"tags":{"addr:city":"Auckland","addr:housenumber":"19","addr:postcode":"2110","addr:street":"Vernon Street","addr:suburb":"Papakura","branch":"Papakura","brand":"F45 Training","brand:wikidata":"Q64390973","leisure":"fitness_centre","name":"F45 Training","ref:linz:address_id":"3096504","short_name":"F45","website":"https://f45training.co.nz/"}},{"type":"node","id":9602062945,"lat":-37.0631825,"lon":174.9428946,"tags":{"addr:city":"Papakura","addr:housenumber":"1/182","addr:postcode":"2110","addr:street":"Great South Road","addr:suburb":"Papakura","branch":"Takanini","brand":"CrossFit","brand:wikidata":"Q2072840","leisure":"fitness_centre","name":"CrossFit","ref:linz:address_id":"3104128","website":"https://www.crossfittakanini.com/"}},{"type":"node","id":9602089405,"lat":-37.048593,"lon":174.9319878,"tags":{"addr:city":"Auckland","addr:housenumber":"30","addr:postcode":"2112","addr:street":"Walters Road","branch":"Takanini","brand":"CityFitness","brand:wikidata":"Q110923303","leisure":"fitness_centre","name":"CityFitness"}},{"type":"node","id":9604340440,"lat":-36.9209108,"lon":174.8012961,"tags":{"addr:city":"Auckland","addr:housenumber":"2A","addr:postcode":"1061","addr:street":"Malvern Road","addr:suburb":"Onehunga","brand":"Fortitude","leisure":"fitness_centre","name":"Fortitude Fitness","ref:linz:address_id":"3068091","website":"https://fortitudefitness.nz/"}},{"type":"node","id":9604340441,"lat":-36.9251383,"lon":174.7823329,"tags":{"addr:city":"Auckland","addr:housenumber":"34","addr:postcode":"1061","addr:street":"Princes Street","branch":"One Tree Hill","brand":"F45 Training","brand:wikidata":"Q64390973","leisure":"fitness_centre","name":"F45 Training","short_name":"F45","website":"https://f45training.co.nz/"}},{"type":"node","id":9604340442,"lat":-36.9222515,"lon":174.7856647,"tags":{"addr:city":"Auckland","addr:housenumber":"64","addr:postcode":"1061","addr:street":"Waller Street","branch":"One Tree Hill","brand":"Body Fit Training","leisure":"fitness_centre","name":"Body Fit Training","website":"Body Fit Training"}},{"type":"node","id":9604340443,"lat":-36.9217884,"lon":174.8131078,"tags":{"addr:city":"Auckland","addr:housenumber":"385B","addr:postcode":"1061","addr:street":"Neilson Street","brand":"Getstrength Gym","leisure":"fitness_centre","name":"Getstrength Gym","website":"https://getstrength.co.nz/"}},{"type":"node","id":9604340444,"lat":-36.9023666,"lon":174.8086239,"tags":{"addr:city":"Auckland","addr:housenumber":"666","addr:place":"Building 9","addr:postcode":"1051","addr:street":"Great South Road","addr:suburb":"Ellerslie","building:flats":"111","leisure":"fitness_centre","level":"3","name":"Reset Fitness","ref:linz:address_id":"stack(2083281-2083283,2222879,2236067-2236077,2344591-2344595,2344633-2344639,2366800-2366882,2399896)","website":"https://www.resetfitness.nz/"}},{"type":"node","id":9604340445,"lat":-36.9057202,"lon":174.8106835,"tags":{"addr:city":"Auckland","addr:housenumber":"714","addr:street":"Great South Road","brand":"DNA Fitness","leisure":"fitness_centre","name":"Hilton Brown Fitness & Swim","website":"http://HiltonBrownswimming.co.nz"}},{"type":"node","id":9604367526,"lat":-36.8983746,"lon":174.8088004,"tags":{"brand":"F45 Training","brand:wikidata":"Q64390973","leisure":"fitness_centre","name":"F45 Training","short_name":"F45","website":"https://f45training.co.nz/"}},{"type":"node","id":9604367527,"lat":-36.8993528,"lon":174.8077359,"tags":{"addr:city":"Auckland","addr:housenumber":"11","addr:street":"Sultan Street","brand":"Strength HQ","leisure":"fitness_centre","name":"Strength HQ","website":"https://strengthhq.co.nz/"}},{"type":"node","id":9604407713,"lat":-36.8830871,"lon":174.813592,"tags":{"addr:city":"Auckland","addr:housenumber":"33","addr:postcode":"1050","addr:street":"Haast Street","brand":"Genesis Fitness","leisure":"fitness_centre","name":"Genesis Fitness","website":"https://www.genesisfitness.co.nz/"}},{"type":"node","id":9604407714,"lat":-36.9096373,"lon":174.7554574,"tags":{"addr:city":"Auckland","addr:housenumber":"509","addr:postcode":"1023","addr:street":"Mount Albert Road","branch":"Hillsborough","brand":"F45 Training","brand:wikidata":"Q64390973","leisure":"fitness_centre","name":"F45 Training","short_name":"F45","website":"https://f45training.co.nz/"}},{"type":"node","id":9604473704,"lat":-36.88576,"lon":174.7135617,"tags":{"addr:city":"Auckland","addr:housenumber":"945A","addr:postcode":"1025","addr:street":"New North Road","branch":"Mt Albert","brand":"Anytime Fitness","leisure":"fitness_centre","name":"Anytime Fitness","not:brand:wikidata":"Q4778364","website":"https://www.anytimefitness.co.nz/"}},{"type":"node","id":9604473705,"lat":-36.8703324,"lon":174.763722,"tags":{"addr:city":"Auckland","addr:housenumber":"12","addr:postcode":"1024","addr:street":"Normanby Road","brand":"MedStrength","leisure":"fitness_centre","name":"MedStrength","website":"https://www.medstrength.co.nz/"}},{"type":"node","id":9604473707,"lat":-36.8685062,"lon":174.7604076,"tags":{"addr:city":"Auckland","addr:housenumber":"101","addr:street":"Mount Eden Road","leisure":"fitness_centre","name":"Carbon Method Crossfit","website":"https://www.carbonmethodcrossfit.co.nz/"}},{"type":"node","id":9604498123,"lat":-36.8636754,"lon":174.7595216,"tags":{"addr:city":"Auckland","addr:housenumber":"143","addr:street":"Newton Road","brand":"Playground Fitness","leisure":"fitness_centre","name":"Playground Fitness","website":"https://www.playgroundfitness.co.nz/"}},{"type":"node","id":9604598136,"lat":-36.7876949,"lon":174.770088,"tags":{"addr:housenumber":"L 2 / 3","addr:street":"Como Street","branch":"Takapuna","brand":"Les Mills","leisure":"fitness_centre","name":"Les Mills","website":"https://www.lesmills.co.nz/"}},{"type":"node","id":9604598137,"lat":-36.7885619,"lon":174.7705881,"tags":{"addr:city":"Auckland","addr:housenumber":"8b","addr:postcode":"0622","addr:street":"Como Street","leisure":"fitness_centre","name":"Flex Fitness","opening_hours":"24/7","website":"https://flexfitnessgym.co.nz/"}},{"type":"node","id":9604631323,"lat":-36.7874905,"lon":174.7729824,"tags":{"addr:city":"Auckland","addr:housenumber":"51","addr:postcode":"0622","addr:street":"Hurstmere Road Cycleway","branch":"Takapuna","brand":"Body Fit Training","leisure":"fitness_centre","name":"Body Fit Training","website":"https://bodyfittraining.com/"}},{"type":"node","id":9604632573,"lat":-36.7880124,"lon":174.7710983,"tags":{"addr:city":"Auckland","addr:housenumber":"529","addr:street":"Lake Road","leisure":"fitness_centre","name":"ALLFIT","opening_hours":"24/7","website":"https://www.allfit.co.nz/"}},{"type":"node","id":9604632574,"lat":-36.792187,"lon":174.7656931,"tags":{"addr:city":"Auckland","addr:housenumber":"20c","addr:postcode":"0622","addr:street":"Barrys Point Road","brand":"Sano Training","leisure":"fitness_centre","name":"Sano Training","website":"https://www.sanotraining.com/"}},{"type":"node","id":9641532283,"lat":-36.9248947,"lon":174.8955373,"tags":{"leisure":"fitness_centre","name":"Jax Fitness"}},{"type":"node","id":9649791285,"lat":-36.907923,"lon":174.6898592,"tags":{"leisure":"fitness_centre","name":"The Arena","sport":"fitness"}},{"type":"node","id":9678407741,"lat":-36.9628078,"lon":174.8991379,"tags":{"leisure":"fitness_centre","name":"UBX"}},{"type":"node","id":9689265567,"lat":-36.8111514,"lon":174.7130052,"tags":{"brand":"Jetts Fitness","brand:wikidata":"Q24185346","leisure":"fitness_centre","name":"Jetts Fitness","short_name":"Jetts"}},{"type":"node","id":9723618875,"lat":-36.8853857,"lon":174.8478932,"tags":{"leisure":"fitness_centre","name":"Onform"}},{"type":"node","id":9723648995,"lat":-36.8859095,"lon":174.8485052,"tags":{"leisure":"fitness_centre","name":"CLM The Bays"}},{"type":"node","id":9860206919,"lat":-36.811956,"lon":174.7229609,"tags":{"leisure":"fitness_centre","name":"BodyFitTraining","phone":"+64 21 656 682","website":"http://BodyFitTraining.com"}},{"type":"node","id":9879051020,"lat":-36.8768333,"lon":174.8563995,"tags":{"alt_name":"eastskatehub","leisure":"sports_centre","name":"SonSk8","sport":"skateboard","website":"https://www.sonsk8.co.nz/"}},{"type":"node","id":9906643576,"lat":-37.0367322,"lon":174.9025638,"tags":{"branch":"Wattle Downs","brand":"F45 Training","brand:wikidata":"Q64390973","leisure":"fitness_centre","name":"F45 Training","short_name":"F45"}},{"type":"node","id":9954030923,"lat":-36.8592393,"lon":174.7515962,"tags":{"addr:housenumber":"26/A","addr:street":"Ponsonby Road","leisure":"fitness_centre","level":"1","name":"Eastwest Yoga"}},{"type":"node","id":10038321598,"lat":-36.8489972,"lon":174.7854896,"tags":{"access":"private","leisure":"pitch","name":"Gladstone Tennis Club","sport":"tennis"}},{"type":"node","id":10045969430,"lat":-36.8925808,"lon":174.7795611,"tags":{"leisure":"fitness_centre","name":"Oxygen"}},{"type":"node","id":10156127649,"lat":-36.9306406,"lon":174.9092775,"tags":{"brand":"Anytime Fitness","brand:wikidata":"Q4778364","leisure":"fitness_centre","name":"Anytime Fitness","opening_hours":"24/7"}},{"type":"node","id":10177428551,"lat":-36.986855,"lon":174.8676881,"tags":{"brand":"F45 Training","brand:wikidata":"Q64390973","leisure":"fitness_centre","name":"F45 Training","short_name":"F45"}},{"type":"node","id":10209133887,"lat":-36.9647275,"lon":174.9125079,"tags":{"leisure":"playground","name":"Centre Activity Zone"}},{"type":"node","id":10209133895,"lat":-36.965595,"lon":174.9121222,"tags":{"brand":"CityFitness","brand:wikidata":"Q110923303","leisure":"fitness_centre","level":"2","name":"CityFitness"}},{"type":"node","id":10243575812,"lat":-36.813648,"lon":174.6090425,"tags":{"leisure":"fitness_centre","name":"Flex Fitness"}},{"type":"node","id":10243575813,"lat":-36.8112307,"lon":174.603998,"tags":{"leisure":"sports_centre","name":"Boulder Co.","sport":"climbing"}},{"type":"node","id":10252621809,"lat":-36.770392,"lon":174.7367576,"tags":{"brand":"CityFitness","brand:wikidata":"Q110923303","leisure":"fitness_centre","name":"CityFitness"}},{"type":"node","id":10605802415,"lat":-36.6225303,"lon":174.7480174,"tags":{"name":"Swann Beach","name:etymology":"Percy Swann","natural":"beach","old_name":"Swan Beach","ref:linz:place_id":"5672","wikidata":"Q49324929"}},{"type":"node","id":10605802416,"lat":-36.8187634,"lon":174.7445792,"tags":{"name":"Halls Beach","natural":"beach","ref:linz:place_id":"22081","wikidata":"Q32215125"}},{"type":"node","id":10605802418,"lat":-36.7775294,"lon":174.6584779,"tags":{"name":"Christmas Beach","natural":"beach","ref:linz:place_id":"18454","wikidata":"Q32159810"}},{"type":"node","id":10605802419,"lat":-36.909944,"lon":174.952667,"tags":{"name":"Shelly Park Beach","natural":"beach","ref:linz:place_id":"39822","wikidata":"Q49324723"}},{"type":"node","id":10605802421,"lat":-36.8077875,"lon":174.9411293,"tags":{"name":"Onehorahia","name:mi":"Onehorahia","natural":"beach","ref:linz:place_id":"4207","wikidata":"Q32307957"}},{"type":"node","id":10605802428,"lat":-37.050129,"lon":174.86635,"tags":{"name":"Deep Water Beach","natural":"beach","ref:linz:place_id":"58112","wikidata":"Q125856575"}},{"type":"node","id":10605802429,"lat":-37.049068,"lon":174.857055,"tags":{"name":"Shallow Water Beach","natural":"beach","ref:linz:place_id":"58113","wikidata":"Q125857946"}},{"type":"node","id":10653439471,"lat":-36.7318466,"lon":174.713531,"tags":{"access":"customers","indoor":"yes","leisure":"playground","name":"Inflatable World","website":"https://www.inflatableworld.co.nz/stadiums/albany/"}},{"type":"node","id":10672199666,"lat":-36.9840235,"lon":174.7818009,"tags":{"brand":"F45 Training","brand:wikidata":"Q64390973","leisure":"fitness_centre","name":"F45 Training","short_name":"F45"}},{"type":"node","id":10744605546,"lat":-37.2101085,"lon":174.9136099,"tags":{"leisure":"fitness_centre","name":"Flex Fitness"}},{"type":"node","id":10796113751,"lat":-36.7957684,"lon":175.046833,"tags":{"amenity":"cafe","leisure":"sports_centre","name":"Ritual","sport":"yoga","website":"https://ritual.nz/"}},{"type":"node","id":10804117360,"lat":-36.8942822,"lon":174.9300416,"tags":{"addr:city":"Auckland","addr:housenumber":"2/1","addr:postcode":"2014","addr:street":"Fencible Drive","fee":"no","leisure":"sports_centre","name":"Swimgym Howick","phone":"+64 9 537 0029","sport":"swimming","website":"https://www.swimgym.org.nz/"}},{"type":"node","id":10839032443,"lat":-36.9127201,"lon":174.9274004,"tags":{"addr:city":"Auckland","addr:housenumber":"129","addr:postcode":"2014","addr:street":"Meadowland Drive","brand":"CrossFit","brand:wikidata":"Q2072840","leisure":"fitness_centre","name":"CrossFit","sport":"fitness"}},{"type":"node","id":10872399808,"lat":-36.7965651,"lon":175.0461253,"tags":{"leisure":"fitness_centre","name":"Waiheke Pikates Center"}},{"type":"node","id":10872400006,"lat":-36.7958561,"lon":175.045547,"tags":{"brand":"F45 Training","brand:wikidata":"Q64390973","leisure":"fitness_centre","name":"F45 Training","short_name":"F45"}},{"type":"node","id":11037675564,"lat":-36.8564358,"lon":174.7430105,"tags":{"leisure":"fitness_centre","name":"Sala","website":"https://www.sala.studio/"}},{"type":"node","id":11121267754,"lat":-37.0530715,"lon":174.9321767,"tags":{"leisure":"fitness_centre","name":"OTB Health Club"}},{"type":"node","id":11137674157,"lat":-36.7019828,"lon":174.7512241,"tags":{"leisure":"sports_centre","name":"Torbay Sailing Club","sport":"sailing"}},{"type":"node","id":11204077741,"lat":-36.8499698,"lon":174.7658695,"tags":{"brand":"Anytime Fitness","brand:wikidata":"Q4778364","leisure":"fitness_centre","name":"Anytime Fitness","opening_hours":"24/7"}},{"type":"node","id":11228256108,"lat":-36.8538546,"lon":174.7727608,"tags":{"addr:city":"Auckland","addr:housenumber":"1","addr:street":"Tennis Lane","addr:suburb":"Auckland Central","leisure":"fitness_centre","name":"Next Gen"}},{"type":"node","id":11235068924,"lat":-36.8550889,"lon":174.7590982,"tags":{"check_date":"2026-05-26","leisure":"fitness_centre","name":"The Y"}},{"type":"node","id":11244700073,"lat":-37.0462119,"lon":174.9245162,"tags":{"brand":"F45 Training","brand:wikidata":"Q64390973","leisure":"fitness_centre","name":"F45 Training","short_name":"F45"}},{"type":"node","id":11254406381,"lat":-36.8468271,"lon":174.762413,"tags":{"brand":"Anytime Fitness","brand:wikidata":"Q4778364","leisure":"fitness_centre","name":"Anytime Fitness","opening_hours":"24/7"}},{"type":"node","id":11263934834,"lat":-36.9625438,"lon":174.8975514,"tags":{"brand":"Anytime Fitness","brand:wikidata":"Q4778364","leisure":"fitness_centre","name":"Anytime Fitness","opening_hours":"24/7"}},{"type":"node","id":11263934836,"lat":-36.962512,"lon":174.8973624,"tags":{"leisure":"fitness_centre","name":"Reform Fitness"}},{"type":"node","id":11270913016,"lat":-37.0213333,"lon":174.8962644,"tags":{"leisure":"fitness_centre","name":"Flex Fitness","opening_hours":"24/7"}},{"type":"node","id":11310802390,"lat":-37.0105379,"lon":174.9050175,"tags":{"leisure":"garden","name":"Trial Garden"}},{"type":"node","id":11582816983,"lat":-36.7758524,"lon":174.733038,"tags":{"addr:housenumber":"111","addr:street":"Diana Drive","charge":"23 NZD/day","check_date":"2024-02-04","email":"info@northernrocks.co.nz","fee":"yes","internet_access":"wlan","internet_access:fee":"customers","leisure":"sports_centre","name":"Northern Rocks","opening_hours":"Mo-Fr 10:00-22:00; Sa-Su 08:00-20:00","payment:cash":"yes","payment:credit_cards":"yes","phone":"+64 9 278 2363","sport":"climbing","website":"https://www.northernrocks.co.nz/"}},{"type":"node","id":11591013872,"lat":-36.8591589,"lon":174.7449609,"tags":{"leisure":"fitness_centre","name":"Ananda Marga","sport":"yoga"}},{"type":"node","id":11592692727,"lat":-36.8631099,"lon":174.7343275,"tags":{"brand":"F45 Training","brand:wikidata":"Q64390973","leisure":"fitness_centre","name":"F45 Training","short_name":"F45"}},{"type":"node","id":11612559168,"lat":-36.7402478,"lon":174.7216275,"tags":{"contact:facebook":"https://facebook.com/epicfitstudios","contact:linkedin":"https://linkedin.com/company/epic-fitness-limited","email":"info@epicfit.net","leisure":"fitness_centre","level":"1","name":"Epic Fit","opening_hours":"Mo-Th 05:00-20:00; Fr 05:00-18:00; Sa 07:00-12:00; Su 09:30-12:00","phone":"+64 21 195 2220","website":"https://epicfitstudios.com/"}},{"type":"node","id":11700026847,"lat":-36.506032,"lon":174.7211828,"tags":{"name":"Tungutu Lookout","tourism":"viewpoint"}},{"type":"node","id":11808247876,"lat":-36.8872443,"lon":174.8448638,"tags":{"addr:city":"Auckland","addr:housenumber":"40","addr:postcode":"1072","addr:street":"Stonefields Avenue","addr:suburb":"Stonefields","leisure":"fitness_centre","name":"Flex Fitness","opening_hours":"24/7","phone":"+64 9 218 8197","website":"https://www.facebook.com/FlexStonefields"}},{"type":"node","id":11833989679,"lat":-36.8439842,"lon":174.7525048,"tags":{"leisure":"fitness_centre","name":"V Bike","website":"https://vbike.co.nz"}},{"type":"node","id":11934514057,"lat":-36.968752,"lon":174.8596575,"tags":{"addr:housenumber":"129B","addr:street":"Great South Road","brand":"F45 Training","brand:wikidata":"Q64390973","leisure":"fitness_centre","name":"F45 Training","short_name":"F45"}},{"type":"node","id":11991034117,"lat":-36.8102051,"lon":174.7375136,"tags":{"brand":"Snap Fitness","brand:wikidata":"Q7547254","leisure":"fitness_centre","name":"Snap Fitness"}},{"type":"node","id":12040820029,"lat":-36.8802205,"lon":175.0253093,"tags":{"direction":"350","name":"Ōmana Lookout","tourism":"viewpoint"}},{"type":"node","id":12042675730,"lat":-36.8117605,"lon":174.6054408,"tags":{"leisure":"fitness_centre","name":"Planet Fitness"}},{"type":"node","id":12067343646,"lat":-36.9101119,"lon":174.6503156,"tags":{"brand":"Anytime Fitness","brand:wikidata":"Q4778364","check_date":"2026-04-16","leisure":"fitness_centre","name":"Anytime Fitness","opening_hours":"24/7","sport":"fitness"}},{"type":"node","id":12073317174,"lat":-36.8856255,"lon":174.6333587,"tags":{"addr:city":"Auckland","addr:housenumber":"1/16","addr:street":"View Road","addr:suburb":"Henderson","contact:instagram":"https://instagram.com/thejuggernautfitness","leisure":"fitness_centre","mobile":"+64 210 262 4659","name":"Juggernaut Fitness","ref:linz:address_id":"3062326"}},{"type":"node","id":12148840573,"lat":-36.783263,"lon":175.0093927,"tags":{"leisure":"fitness_centre","name":"The Forge","website":"https://www.forgestrength.co.nz/"}},{"type":"node","id":12293340087,"lat":-36.7751958,"lon":174.5554727,"tags":{"brand":"Anytime Fitness","brand:wikidata":"Q4778364","leisure":"fitness_centre","name":"Anytime Fitness","opening_hours":"24/7","sport":"fitness"}},{"type":"node","id":12330033502,"lat":-36.9129226,"lon":174.6902743,"tags":{"addr:city":"Auckland","addr:housenumber":"44","addr:postcode":"0604","addr:street":"Portage Road","addr:suburb":"New Lynn","email":"info@synergysports.co.nz","leisure":"sports_centre","name":"Synergy Sports","opening_hours":"Mo-Su 10:00-22:00","phone":"+64 22 676 6712;+64 9 392 0008","website":"https://synergysports.co.nz"}},{"type":"node","id":12368018733,"lat":-37.1512391,"lon":174.705055,"tags":{"archaeological_site":"fortification","fortification_type":"pa","historic":"archaeological_site","leisure":"park","name":"Waitete Pā","name:mi":"Waitete Pā"}},{"type":"node","id":12487391724,"lat":-36.9700752,"lon":174.8001235,"tags":{"addr:street":"Mangere Town Square","leisure":"sports_centre","name":"Redrat","website":"http://redrat.co.nz"}},{"type":"node","id":12523109206,"lat":-36.8827676,"lon":174.7193557,"tags":{"addr:postcode":"1025","leisure":"sports_centre","name":"The UMMA Trust - Muslim Youth","phone":"+64 9 815 0153","website":"http://ummatrust.co.nz"}},{"type":"node","id":12569835759,"lat":-36.8636411,"lon":174.7587131,"tags":{"addr:housenumber":"129","addr:street":"Newton Road","leisure":"fitness_centre","name":"Auckland Climbing Gym","opening_hours":"Mo-Fr 10:00-21:00; Sa,Su,PH 10:00-19:00","sport":"climbing;yoga","swimming_pool":"no","wheelchair":"limited"}},{"type":"node","id":12585429717,"lat":-36.909284,"lon":174.6880681,"tags":{"addr:housenumber":"13","addr:street":"Pūriri Street","leisure":"sports_centre","name":"Shotokan Karate-do","phone":"+64 21 237 7556","website":"http://skif.co.nz"}},{"type":"node","id":12596621102,"lat":-36.8741655,"lon":174.8532341,"tags":{"addr:housenumber":"L 1 / 129","addr:street":"Apirana Avenue","brand":"Snap Fitness","brand:wikidata":"Q7547254","leisure":"fitness_centre","name":"Snap Fitness","opening_hours":"24/7","website":"https://www.snapfitness.com/nz/gyms/glen-innes"}},{"type":"node","id":12662462395,"lat":-36.7821838,"lon":174.7159299,"tags":{"leisure":"fitness_centre","name":"KC Fit"}},{"type":"node","id":12666209150,"lat":-36.8628877,"lon":174.8091861,"tags":{"addr:city":"Auckland","addr:housenumber":"228","addr:postcode":"1050","addr:street":"Orakei Road","addr:suburb":"Remuera","brand":"F45 Training","brand:wikidata":"Q64390973","leisure":"fitness_centre","name":"F45 Training","short_name":"F45"}},{"type":"node","id":12666473452,"lat":-36.7256513,"lon":174.7069295,"tags":{"leisure":"fitness_centre","name":"COAST ACADEMY ALBANY - Jiu Jitsu","sport":"multi","website":"https://www.coastacademy.co.nz/"}},{"type":"node","id":12760609199,"lat":-36.8659664,"lon":174.7784984,"tags":{"addr:housenumber":"Broadway","addr:street":"77","leisure":"fitness_centre","name":"The Olympic Pools & Fitness Centre","phone":"+64 9 522 4414","website":"https://theolympic.co.nz/"}},{"type":"node","id":12808215566,"lat":-36.8818756,"lon":174.6351506,"tags":{"brand":"CityFitness","brand:wikidata":"Q110923303","leisure":"fitness_centre","name":"CityFitness","opening_hours":"24/7","sport":"fitness"}},{"type":"node","id":12829725256,"lat":-36.8967864,"lon":174.6010901,"tags":{"email":"info@kiwivalley.co.nz","name":"Kiwi Valley Farm Park","phone":"+64 9 837 2952","tourism":"zoo","website":"https://kiwivalley.co.nz","wikidata":"Q117801742","zoo":"petting_zoo"}},{"type":"node","id":12985323091,"lat":-36.8483632,"lon":174.7435278,"tags":{"addr:housenumber":"308","addr:street":"Ponsonby Road","leisure":"fitness_centre","name":"Allfit","opening_hours":"24/7","phone":"0800 255 348","website":"https://www.allfit.co.nz/"}},{"type":"node","id":13002750622,"lat":-36.41939,"lon":174.723399,"tags":{"addr:city":"Snells Beach","addr:housenumber":"280","addr:postcode":"0920","addr:street":"Mahurangi East Road","addr:suburb":"Snells Beach","leisure":"fitness_centre","name":"Fitness Hub","opening_hours":"Mo-Su 04:30-22:00","sport":"fitness","website":"https://www.fitnesshub.co.nz"}},{"type":"node","id":13003398633,"lat":-36.9196113,"lon":174.934493,"tags":{"name":"Archies Lookout","tourism":"viewpoint"}},{"type":"node","id":13008038400,"lat":-37.1042163,"lon":174.9469073,"tags":{"leisure":"fitness_centre","name":"Attitude Pole And Fitness","sport":"fitness"}},{"type":"node","id":13025995903,"lat":-36.8999184,"lon":174.7422511,"tags":{"addr:city":"Auckland","addr:housenumber":"911","addr:postcode":"1041","addr:street":"Dominion Road","addr:suburb":"Mount Roskill","leisure":"sports_centre","name":"Action Central","opening_hours":"Mo-Su 09:00-23:00","phone":"+64 9 620 6113","sport":"netball;cricket;football","website":"https://www.actionindoorsports.com/central/"}},{"type":"node","id":13026649423,"lat":-36.8551378,"lon":174.6379062,"tags":{"addr:city":"Auckland","addr:housenumber":"121b","addr:postcode":"0610","addr:street":"Central Park Drive","addr:suburb":"Henderson","leisure":"fitness_centre","name":"Average Joes Gym","phone":"+64 27 250 1616","sport":"fitness","website":"https://www.facebook.com/averagejoesgymnz"}},{"type":"node","id":13070352933,"lat":-36.7854872,"lon":174.7733713,"tags":{"leisure":"fitness_centre","name":"Flying Studio","sport":"yoga","website":"https://www.flyingstudio.co.nz"}},{"type":"node","id":13073052895,"lat":-36.771983,"lon":174.7666344,"tags":{"brand":"CityFitness","brand:wikidata":"Q110923303","leisure":"fitness_centre","name":"CityFitness"}},{"type":"node","id":13288058200,"lat":-37.1245758,"lon":174.5678781,"tags":{"name":"Hamiltons Beach","natural":"beach","wikidata":"Q134680484"}},{"type":"node","id":13299047364,"lat":-36.8452749,"lon":174.769681,"tags":{"description":"urban golf","indoor":"yes","leisure":"sports_centre","name":"Flush","opening_hours":"07:00-23:00","sport":"golf","website":"https://www.flushgolf.co.nz"}},{"type":"node","id":13316172496,"lat":-36.8994036,"lon":174.7891889,"tags":{"name":"Folly","tourism":"viewpoint"}},{"type":"node","id":13343678420,"lat":-36.7599471,"lon":175.4984868,"tags":{"addr:housenumber":"120","addr:street":"Woollams Avenue","addr:suburb":"Coromandel","contact:email":"coromandelcommunityswimmingpool@outlook.com","leisure":"sports_centre","name":"Community Pool","opening_hours":"Apr-Sep off","phone":"+64 27 348 2400","sport":"swimming"}},{"type":"node","id":13350631032,"lat":-37.199684,"lon":174.904537,"tags":{"leisure":"fitness_centre","name":"Anytime Fitness"}},{"type":"node","id":13364762347,"lat":-36.8655613,"lon":174.6316329,"tags":{"leisure":"fitness_centre","name":"Simplicity Fitness"}},{"type":"node","id":13365263037,"lat":-36.856456,"lon":174.6288034,"tags":{"brand":"Snap Fitness","brand:wikidata":"Q7547254","leisure":"fitness_centre","name":"Snap Fitness"}},{"type":"node","id":13409986794,"lat":-36.7795674,"lon":175.0218278,"tags":{"direction":"22","name":"Epiphany Point","tourism":"viewpoint"}},{"type":"node","id":13412687472,"lat":-36.8413124,"lon":174.7592444,"tags":{"name":"Karanga Plaza Tidal Steps","tourism":"viewpoint"}},{"type":"node","id":13514020327,"lat":-36.8116916,"lon":174.7233751,"tags":{"addr:city":"Auckalnd","addr:housenumber":"35","addr:postcode":"0626","addr:street":"Mokoia Road","addr:suburb":"Birkenhead","fee":"yes","internet_access":"yes","leisure":"fitness_centre","name":"City Fitness Brikenhead","opening_hours":"24/7","phone":"+64 9 414 3972","wheelchair":"no"}},{"type":"node","id":13525217186,"lat":-36.8122869,"lon":174.7254517,"tags":{"addr:city":"Auckland","addr:housenumber":"22","addr:postcode":"0626","addr:street":"Mokoia Road","addr:suburb":"Birkenhead","leisure":"fitness_centre","name":"Reform","website":"https://reformfitness.co.nz"}},{"type":"node","id":13613177496,"lat":-36.8484027,"lon":174.7582796,"tags":{"comment":"where is the main entry for this?","leisure":"fitness_centre","name":"Les Mills"}},{"type":"node","id":13613177497,"lat":-36.8482556,"lon":174.7578143,"tags":{"comment":"where is the main entry for this?","leisure":"fitness_centre","name":"Les Mills"}},{"type":"node","id":13671310599,"lat":-36.8401671,"lon":174.6041884,"tags":{"addr:city":"Auckland","addr:housenumber":"18A","addr:postcode":"0614","addr:street":"Gallony Avenue","addr:suburb":"Massey","leisure":"park","name":"Gallony park"}},{"type":"node","id":13676620404,"lat":-36.7643428,"lon":174.7364317,"tags":{"addr:housenumber":"18","addr:street":"Link Drive","check_date":"2026-07-09","leisure":"sports_centre","name":"1988 Billiard"}},{"type":"node","id":13676671801,"lat":-36.7644134,"lon":174.7364088,"tags":{"addr:housenumber":"18","addr:street":"Link Drive","check_date":"2026-07-09","leisure":"fitness_centre","name":"Link Health and Fitness","website":"https://linkhealthandfitness.co.nz/"}},{"type":"node","id":13676671902,"lat":-36.7650725,"lon":174.7370122,"tags":{"addr:housenumber":"9/18","addr:street":"Link Drive","leisure":"sports_centre","name":"Ten Pin Bow8","opening_hours":"Mo-Su 09:30-13:30"}},{"type":"node","id":13676672302,"lat":-36.7652942,"lon":174.7369507,"tags":{"addr:housenumber":"7/18","addr:street":"Link Drive","leisure":"sports_centre","name":"K Golf","opening_hours":"Mo-Su 09:00-23:00"}},{"type":"node","id":13687013120,"lat":-36.7328205,"lon":174.7091962,"tags":{"leisure":"fitness_centre","name":"Breathe","sport":"yoga"}},{"type":"node","id":13715219801,"lat":-36.8753763,"lon":174.7510684,"tags":{"addr:housenumber":"213","addr:street":"Dominion Road","leisure":"sports_centre","name":"Sorisso - Brazilian Jui jitsu"}},{"type":"node","id":13717638104,"lat":-36.9113974,"lon":174.7768358,"tags":{"addr:housenumber":"6","addr:street":"Campbell Road","leisure":"sports_centre","name":"FlexFitness","opening_hours":"24/7"}},{"type":"node","id":13722312308,"lat":-36.8692869,"lon":174.7606681,"tags":{"addr:housenumber":"44","addr:street":"Mount Eden Road","leisure":"sports_centre","name":"Van Room Martial Arts"}},{"type":"node","id":13733800601,"lat":-36.9124637,"lon":174.7755125,"tags":{"addr:housenumber":"114","addr:street":"Manukau Road","leisure":"sports_centre","name":"Royal Oak Racquets Club","website":"https://www.royaloakracquets.co.nz/"}},{"type":"node","id":13751689803,"lat":-36.8973235,"lon":174.8085993,"tags":{"addr:housenumber":"3","addr:street":"Robert Street","leisure":"sports_centre","name":"Badminton Oceania"}},{"type":"node","id":13753547802,"lat":-36.768979,"lon":174.7364032,"tags":{"addr:housenumber":"175","addr:postcode":"0627","addr:street":"Target Road","leisure":"sports_centre","name":"Pool and Blues"}},{"type":"node","id":13759782695,"lat":-36.9213804,"lon":174.9359762,"tags":{"direction":"NE","name":"Friends Lookout","tourism":"viewpoint"}},{"type":"node","id":13762303704,"lat":-36.9046448,"lon":174.7415081,"tags":{"leisure":"fitness_centre","name":"Infinity"}},{"type":"node","id":13765100602,"lat":-36.8802382,"lon":174.7759042,"tags":{"addr:housenumber":"157","addr:street":"Manukau Road","leisure":"sports_centre","name":"Hitman Muay Thai","website":"https://hmtleegar.nz/"}},{"type":"node","id":13778913701,"lat":-36.8590702,"lon":174.7482673,"tags":{"addr:housenumber":"44","addr:street":"Pollen Street","leisure":"sports_centre","name":"Anytime Fitness"}},{"type":"node","id":13778914001,"lat":-36.85754,"lon":174.7484403,"tags":{"addr:housenumber":"94b","addr:street":"Ponsonby Road","leisure":"sports_centre","name":"Ponsonby Pool Mall","opening_hours":"Mo-Th 14:00-00:00; Fr-Sa 12:00-01:00; Su 12:00-00:00"}},{"type":"node","id":13785744805,"lat":-36.979624,"lon":174.851635,"tags":{"addr:housenumber":"10B","addr:street":"Saint George Street","leisure":"fitness_centre","name":"WPerformance Gym","website":"http://WPerformance.co.nz"}},{"type":"node","id":13788379705,"lat":-36.8560813,"lon":174.7468215,"tags":{"addr:housenumber":"103","addr:street":"Ponsonby Road","leisure":"sports_centre","name":"Proton Pilates - reformer class"}},{"type":"node","id":13788380305,"lat":-36.8595877,"lon":174.752158,"tags":{"addr:housenumber":"8","addr:street":"Ponsonby Road","leisure":"sports_centre","name":"Fitness Studio"}},{"type":"node","id":13805075215,"lat":-36.7882609,"lon":174.7732043,"tags":{"leisure":"sports_centre","name":"Studio Pilates"}},{"type":"node","id":13807205316,"lat":-36.7846068,"lon":174.7728281,"tags":{"leisure":"fitness_centre","name":"Anytime Fitness"}},{"type":"node","id":13807655004,"lat":-36.9209889,"lon":174.7846465,"tags":{"addr:housenumber":"133","addr:street":"Arthur Street","leisure":"fitness_centre","name":"Fused","opening_hours":"24/7","website":"http://fusedfitness.co.nz"}},{"type":"node","id":13830073008,"lat":-36.9257891,"lon":174.7827388,"tags":{"addr:housenumber":"2","addr:street":"Gloucester Park Road","leisure":"fitness_centre","name":"CBA fitness","website":"http://CBAfitness.co.nz"}},{"type":"node","id":13833187305,"lat":-36.74818,"lon":174.7274995,"tags":{"addr:street":"Holder Place","leisure":"fitness_centre","name":"Tomfit"}},{"type":"node","id":13833187311,"lat":-36.7470209,"lon":174.732521,"tags":{"addr:housenumber":"5","addr:street":"Atlas Place","leisure":"fitness_centre","name":"The Home of Basketball"}},{"type":"node","id":13833187506,"lat":-36.7473355,"lon":174.7335929,"tags":{"addr:housenumber":"28","addr:street":"Constellation Drive","leisure":"fitness_centre","name":"snap fitness","opening_hours":"24/7"}},{"type":"node","id":13833187608,"lat":-36.7476488,"lon":174.7322482,"tags":{"addr:street":"Constellation Drive","leisure":"fitness_centre","name":"BFT","website":"http://bodyfittraining.co.nz"}},{"type":"node","id":13833187612,"lat":-36.7467621,"lon":174.7341551,"tags":{"addr:housenumber":"22","addr:street":"Constellation Drive","leisure":"fitness_centre","name":"Dice Centre","website":"http://scuba.co.nz"}},{"type":"node","id":13846838209,"lat":-37.2070234,"lon":174.9105169,"tags":{"addr:housenumber":"12B","addr:street":"Subway Road","leisure":"sports_centre","name":"Thai Kickboxing"}},{"type":"node","id":13897804002,"lat":-36.9131088,"lon":174.7479096,"tags":{"leisure":"fitness_centre","name":"DiveHQ Auckland"}},{"type":"node","id":13921308113,"lat":-36.9190059,"lon":174.8440949,"tags":{"addr:housenumber":"6","addr:street":"Clemow Drive","leisure":"sports_centre","name":"Auckland PickleBall Centre"}},{"type":"node","id":13921867904,"lat":-36.8926318,"lon":174.8376223,"tags":{"addr:housenumber":"47B","addr:street":"Lunn Avenue","leisure":"sports_centre","name":"Paramount Pools"}},{"type":"node","id":13924447702,"lat":-36.8911064,"lon":174.8318315,"tags":{"leisure":"fitness_centre","name":"Simple City Fitness"}},{"type":"node","id":13924447802,"lat":-36.8884512,"lon":174.8307371,"tags":{"addr:housenumber":"110","addr:street":"Lunn Avenue","leisure":"fitness_centre","name":"Snap Fitness"}},{"type":"node","id":13924613401,"lat":-36.8627156,"lon":174.7486779,"tags":{"addr:housenumber":"153","addr:street":"Great North Road","leisure":"sports_centre","name":"IYC Iyenga Yoga Centre","website":"http://yogacentre.co.nz"}},{"type":"node","id":13929953210,"lat":-36.920896,"lon":174.80091,"tags":{"addr:housenumber":"2B","addr:street":"Malvern Road","leisure":"sports_centre","name":"Auckland Kendo Club"}},{"type":"node","id":13937015104,"lat":-36.8473952,"lon":174.7708092,"tags":{"addr:housenumber":"2","addr:postcode":"1010","addr:street":"Princes Street","leisure":"sports_centre","name":"Underground Boxing"}},{"type":"node","id":13939654811,"lat":-36.9285618,"lon":174.7867362,"tags":{"addr:housenumber":"63","addr:street":"Onehunga Mall","leisure":"fitness_centre","name":"Fitness Now"}},{"type":"node","id":13951301118,"lat":-36.8054128,"lon":174.6308685,"tags":{"addr:city":"Auckland","addr:housenumber":"5","addr:postcode":"0618","addr:street":"Rawiri Place","addr:suburb":"Hobsonville","leisure":"sports_centre","name":"Hilton Brown Swimming Pool","phone":"+64 9 479 8251","sport":"swimming","website":"https://hiltonbrownswimming.co.nz/"}},{"type":"node","id":13956713906,"lat":-36.8613548,"lon":174.7599929,"tags":{"addr:housenumber":"54","addr:street":"Upper Queen Street","leisure":"fitness_centre","name":"Solstice"}},{"type":"node","id":13956713907,"lat":-36.8629527,"lon":174.760314,"tags":{"addr:housenumber":"L 2 / 40","addr:street":"Saint Benedicts Street","leisure":"fitness_centre","name":"Move Studio","website":"http://kenkostudio.co.nz"}},{"type":"node","id":13956714006,"lat":-36.8637555,"lon":174.7598957,"tags":{"addr:housenumber":"L 1 / 143","addr:street":"Newton Road","leisure":"sports_centre","name":"Boxing Central"}},{"type":"node","id":13956714007,"lat":-36.8636773,"lon":174.7597013,"tags":{"addr:housenumber":"L 1 / 143","addr:street":"Newton Road","leisure":"sports_centre","name":"Boxing Central"}},{"type":"node","id":13956714901,"lat":-36.8620107,"lon":174.7568723,"tags":{"addr:housenumber":"26b","addr:street":"Randolph Street","leisure":"sports_centre","name":"flip n fly - circus school","website":"https://flipnfly.co.nz/"}},{"type":"node","id":13959167410,"lat":-36.9267572,"lon":174.7970003,"tags":{"addr:street":"Neilson Street","leisure":"sports_centre","name":"Waikaraka Speedway"}},{"type":"node","id":13959167417,"lat":-36.9261414,"lon":174.7873694,"tags":{"addr:housenumber":"3/36","addr:street":"Galway Street","leisure":"sports_centre","name":"NZ Wushu","website":"https://nzwushu.co.nz/"}},{"type":"node","id":13963350901,"lat":-36.9128456,"lon":174.6904151,"tags":{"addr:housenumber":"44","addr:postcode":"0600","addr:street":"Portage Road","email":"admin@Sporthub.org.nz","leisure":"sports_centre","name":"Sporthub","phone":"+64 9 392 0008","website":"http://Sporthub.org.nz"}},{"type":"node","id":13963773910,"lat":-37.0219351,"lon":174.8971095,"tags":{"addr:street":"Great South Road","leisure":"sports_centre","name":"Rival City Mixed Martial Arts"}},{"type":"node","id":13976527411,"lat":-36.8919152,"lon":174.774503,"tags":{"addr:street":"Manukau Road","leisure":"fitness_centre","name":"Propolis - fitness collective"}},{"type":"node","id":13976530225,"lat":-36.9873735,"lon":174.873035,"tags":{"addr:housenumber":"8/20","addr:street":"Lambie Drive","leisure":"fitness_centre","name":"Woman'Gym","opening_hours":"Mo-Su 09:00-18:00"}},{"type":"node","id":13979448119,"lat":-36.7316267,"lon":174.7097118,"tags":{"leisure":"sports_centre","name":"Billiards Club"}},{"type":"node","id":13979653364,"lat":-36.7285709,"lon":174.7078442,"tags":{"leisure":"fitness_centre","name":"Level 1 - City Fitness","opening_hours":"24/7"}},{"type":"node","id":13982050409,"lat":-36.7300026,"lon":174.7142934,"tags":{"addr:housenumber":"2/67","addr:street":"Corinthian Drive","leisure":"fitness_centre","name":"Fitness HQ for Women","opening_hours":"24/7","website":"https://fhq.co.nz/"}},{"type":"node","id":13986925911,"lat":-36.8454961,"lon":174.7365649,"tags":{"addr:housenumber":"172","addr:postcode":"1011","addr:street":"Jervois Road","leisure":"fitness_centre","name":"Anna Jane Pilates"}},{"type":"node","id":13986926004,"lat":-36.8449386,"lon":174.7390449,"tags":{"addr:housenumber":"105A","addr:postcode":"1011","addr:street":"Jervois Road","leisure":"sports_centre","name":"Ponsonby Bowling Club"}},{"type":"node","id":13989135805,"lat":-36.8520195,"lon":174.7569636,"tags":{"addr:housenumber":"145","addr:postcode":"1010","addr:street":"Nelson Street","leisure":"sports_centre","name":"9 Round 30 min kickbox fitness","opening_hours":"Mo-Th 06:00-20:00; Fr 06:00-17:00; Sa 08:00-13:00"}},{"type":"node","id":13989136202,"lat":-36.8521474,"lon":174.7560216,"tags":{"addr:housenumber":"29","addr:postcode":"1010","addr:street":"Union Street","leisure":"sports_centre","name":"Tukaha - jiu jitsu"}},{"type":"node","id":13996737508,"lat":-36.8515712,"lon":174.7763754,"tags":{"addr:housenumber":"2","addr:street":"Carlaw Park Avenue","leisure":"sports_centre","name":"Boxing Alley","website":"https://boxingalley.net/"}},{"type":"node","id":14003525716,"lat":-36.8493252,"lon":174.7792509,"tags":{"addr:housenumber":"L 1 / 77","addr:street":"The Strand","leisure":"fitness_centre","name":"Strand Pilates"}},{"type":"node","id":14003526601,"lat":-36.848015,"lon":174.7737323,"tags":{"addr:housenumber":"L 1 / 103","addr:street":"Beach Road","leisure":"fitness_centre","name":"the YOGA loft"}},{"type":"node","id":14007365204,"lat":-36.8543225,"lon":174.7724975,"tags":{"addr:street":"Tennis Lane","leisure":"sports_centre","name":"MANUKA DOCTOR Arena"}},{"type":"node","id":14007365505,"lat":-36.8319081,"lon":174.7960964,"tags":{"addr:housenumber":"2","addr:street":"Queens Parade","leisure":"sports_centre","name":"The Reformer Yard","website":"http://ReformerYard.com"}},{"type":"node","id":14007637318,"lat":-36.8303405,"lon":174.7975761,"tags":{"addr:housenumber":"59","addr:street":"Victoria Road","leisure":"fitness_centre","name":"SoulSprite","website":"http://SoulSprite.co.nz"}},{"type":"node","id":14007637601,"lat":-36.8302837,"lon":174.7969078,"tags":{"addr:housenumber":"L 1  / 18","addr:street":"Clarence Street","leisure":"fitness_centre","name":"JustWorkout!","opening_hours":"24/7","phone":"+64 9 445 4696","website":"https://justworkout.co.nz/"}},{"type":"node","id":14016521211,"lat":-36.906882,"lon":174.6838787,"tags":{"addr:housenumber":"3045","addr:street":"Great North Road","leisure":"fitness_centre","name":"Anytime Fitness","opening_hours":"24/7","phone":"+64 9 956 4994"}},{"type":"node","id":14016521316,"lat":-36.9050145,"lon":174.685047,"tags":{"addr:housenumber":"26","addr:street":"Veronica Street","leisure":"fitness_centre","name":"Oliver - Martial Arts n Fitness"}},{"type":"node","id":14016521510,"lat":-36.9020492,"lon":174.6860701,"tags":{"addr:housenumber":"80","addr:street":"Delta Avenue","leisure":"fitness_centre","name":"Invictus","opening_hours":"24/7"}},{"type":"node","id":14020910505,"lat":-37.2012442,"lon":174.9070079,"tags":{"addr:housenumber":"5B","addr:street":"Massey Avenue","leisure":"fitness_centre","name":"Snapfitness","opening_hours":"24/7"}},{"type":"way","id":4369953,"center":{"lat":-36.8585008,"lon":174.7629053},"tags":{"alt_name":"Symonds Street Park;Tivoli Corner;Green Park;Cemetery Park;Phoenix Park","leisure":"park","name":"Pigeon Park","name:en":"Pigeon Park","name:mi":"Te Papa Rēhia o Pigeon","operator":"Auckland Council"}},{"type":"way","id":4369988,"center":{"lat":-36.8644171,"lon":174.7575081},"tags":{"leisure":"park","name":"Basque Park","name:en":"Basque Park","name:etymology:wikidata":"Q2074041","name:mi":"Te Papa Rēhia o Basque","old_name":"Basque Road Park","wikidata":"Q4867853","wikipedia":"en:Basque Park"}},{"type":"way","id":5755474,"center":{"lat":-36.8736682,"lon":174.7525887},"tags":{"alt_name":"Belle View Reserve","alt_name:en":"Belle View Reserve","alt_name:mi":"Te Papa Rāhui o Belle View","leisure":"park","name":"Bellevue Reserve","name:en":"Bellevue Reserve","name:mi":"Te Papa Rāhui o Bellevue"}},{"type":"way","id":5755691,"center":{"lat":-36.8802817,"lon":174.7380787},"tags":{"leisure":"park","name":"Gribblehirst Park","name:en":"Gribblehirst Park","name:mi":"Te Papa Rēhia o Gribblehirst","wikidata":"Q117247074"}},{"type":"way","id":6007226,"center":{"lat":-36.8833784,"lon":174.77956},"tags":{"alt_name:mi":"Te Papa Raurarahi o Tītīkōpuke","dog":"leashed","leisure":"park","name":"Mount Saint John Domain","name:en":"Mount Saint John Domain","name:mi":"Te Papa Raurarahi o te Kōpuke","opening_hours":"24/7","operator":"Auckland Council","operator:type":"government","operator:wikidata":"Q758635"}},{"type":"way","id":6026868,"center":{"lat":-36.8780943,"lon":174.7864604},"tags":{"dog":"leashed","leisure":"park","name":"Mount Hobson Domain","operator":"Auckland Council","operator:type":"government","operator:wikidata":"Q758635"}},{"type":"way","id":6029919,"center":{"lat":-36.8590728,"lon":174.7756727},"tags":{"alt_name:mi":"Te Papa Rēhia o Pukekawa","foot":"yes","leisure":"park","name":"Pukekawa / Auckland Domain","name:en":"Auckland Domain","name:mi":"Pukekawa","name:mk":"Градски парк Окленд","operator":"Auckland Council","operator:type":"government","operator:wikidata":"Q758635","wikidata":"Q4819519","wikipedia":"en:Auckland Domain"}},{"type":"way","id":6171388,"center":{"lat":-36.8801222,"lon":174.9170903},"tags":{"leisure":"park","name":"Macleans Park"}},{"type":"way","id":7676504,"center":{"lat":-36.8850501,"lon":174.7526424},"tags":{"leisure":"park","name":"Taylors Park"}},{"type":"way","id":7977831,"center":{"lat":-36.8512195,"lon":174.7773141},"tags":{"leisure":"park","loc_name":"Triangle Park","name":"Fraser Park","name:en":"Fraser Park","name:etymology:wikidata":"Q1400226","name:mi":"Te Papa Rēhia o Fraser","wikidata":"Q117454471"}},{"type":"way","id":7977838,"center":{"lat":-36.8565448,"lon":174.7516014},"tags":{"leisure":"park","name":"Tuna Mau / Western Park","name:en":"Western Park","name:ja":"ウエスタン・パーク","name:mi":"Tuna Mau","wikidata":"Q7988146"}},{"type":"way","id":7977840,"center":{"lat":-36.846672,"lon":174.7538766},"tags":{"alt_name:mi":"Wai Kuta;Wai Kōkota;Te Koranga;Te Papa Rēhia o Wikitōria","leisure":"park","loc_name":"Vic Park","name":"Waiatarau / Victoria Park","name:cs":"Viktoriin park","name:en":"Victoria Park","name:etymology:wikidata":"Q9439","name:ja":"ビクトリア公園","name:mi":"Waiatarau","name:mk":"Викториин парк","wikidata":"Q7926902","wikipedia":"en:Victoria Park, Auckland"}},{"type":"way","id":7977848,"center":{"lat":-36.8573914,"lon":174.7120685},"tags":{"alt_name":"Meola Creek Quarry Reserve","leisure":"park","name":"Meola Reef Reserve","name:en":"Meola Reef Reserve","name:mi":"Te Papa Rāhui o Meola Reef","protection_title":"Local Purpose Reserve","protection_title:wikidata":"Q113576158","ref:linz:napalis_id":"2798151","ref:linz:topo50_id":"bhhfcd","wikidata":"Q123241668"}},{"type":"way","id":7979434,"center":{"lat":-36.9326743,"lon":174.8384671},"tags":{"leisure":"park","name":"Mount Richmond Domain","operator":"Auckland Council","operator:type":"government","operator:wikidata":"Q758635"}},{"type":"way","id":7979585,"center":{"lat":-36.9493272,"lon":174.7846598},"tags":{"addr:city":"Auckland","addr:housenumber":"3R","addr:street":"Taylor Road","addr:suburb":"Māngere Bridge","dog":"unleashed","leisure":"park","name":"Māngere Domain","name:en":"Māngere Domain","operator":"Auckland Council","operator:type":"government","operator:wikidata":"Q758635","ref:linz:address_id":"3091468"}},{"type":"way","id":8015527,"center":{"lat":-36.8819214,"lon":174.7613726},"tags":{"addr:city":"Auckland","addr:housenumber":"3","addr:postcode":"1024","addr:street":"Ngauruhoe Street","addr:suburb":"Mount Eden","leisure":"park","name":"Essex Reserve","name:en":"Essex Reserve","name:etymology:wikidata":"Q23240","name:mi":"Te Papa Rāhui o Essex","wikidata":"Q131006921"}},{"type":"way","id":8059054,"center":{"lat":-36.7862974,"lon":174.7222128},"tags":{"leisure":"park","name":"Oruamo Domain","natural":"wood"}},{"type":"way","id":8061786,"center":{"lat":-36.7812086,"lon":174.7160111},"tags":{"leisure":"park","name":"Kaipātiki Park","name:en":"Kaipātiki Park","name:mi":"Te Papa Rēhia o Kaipātiki","operator":"Auckland Council","operator:type":"government","operator:wikidata":"Q758635"}},{"type":"way","id":8082652,"center":{"lat":-36.8671061,"lon":174.7405321},"tags":{"leisure":"park","name":"Arch Hill Scenic Reserve","wikidata":"Q134802219"}},{"type":"way","id":8082871,"center":{"lat":-36.8655596,"lon":174.7286504},"tags":{"leisure":"park","loc_name":"Outer Fields","name":"Western Springs Lakeside Park Outer Fields","operator":"Tātaki Auckland Unlimited","operator:type":"government","operator:wikidata":"Q55764471","website":"https://aucklandunlimited.com"}},{"type":"way","id":8097201,"center":{"lat":-36.8878524,"lon":174.7656719},"tags":{"alt_name":"Windmill Reserve","alt_name:en":"Windmill Park","alt_name:mi":"Te Papa Rāhua o Pūrere Kapohau;Te Papa Rēhia o Windmill","leisure":"park","name":"Windmill Park","name:en":"Windmill Park","name:mi":"Te Papa Rēhia o Pūrere Kapohau","operator":"Auckland Council","operator:type":"government","operator:wikidata":"Q758635"}},{"type":"way","id":8595632,"center":{"lat":-36.7963745,"lon":174.6494227},"tags":{"leisure":"park","name":"Hobsonville War Memorial Park"}},{"type":"way","id":8597764,"center":{"lat":-36.9766592,"lon":174.828105},"tags":{"leisure":"park","name":"Aorere Park","operator":"Auckland Council","operator:type":"government","operator:wikidata":"Q758635"}},{"type":"way","id":9444251,"center":{"lat":-36.9640395,"lon":174.8047737},"tags":{"alt_name":"Mangere Centre Park","leisure":"park","name":"Māngere Centre Park","name:en":"Māngere Centre Park","name:mi":"Ngā Hau Māngere"}},{"type":"way","id":9444746,"center":{"lat":-36.9669487,"lon":174.7997312},"tags":{"leisure":"park","name":"David Lange Park","name:en":"David Lange Park","name:mi":"Te Papa Rēhia o David Lange","wikidata":"Q32173979"}},{"type":"way","id":9445537,"center":{"lat":-36.9626022,"lon":174.7964672},"tags":{"leisure":"park","name":"Te Ara-tāwhana / Moyle Park","name:en":"Moyle Park","name:mi":"Te Ara-tāwhana"}},{"type":"way","id":9714043,"center":{"lat":-36.87855,"lon":174.750616},"tags":{"addr:housenumber":"312-328","addr:street":"Dominion Road","addr:suburb":"Mount Eden","dog":"leashed","leisure":"park","name":"Ballantyne Square","operator":"Auckland Council","operator:type":"government","operator:wikidata":"Q758635","website":"https://aucklandcouncil.govt.nz/en/parks-recreation/find-park-beach/park-detail/1536.html"}},{"type":"way","id":9779132,"center":{"lat":-36.8779284,"lon":174.760922},"tags":{"addr:city":"Auckland","addr:housenumber":"333","addr:postcode":"1024","addr:street":"Mount Eden Road","addr:suburb":"Mount Eden","leisure":"park","name":"Bridgman Reserve","name:en":"Bridgman Reserve","name:mi":"Te Papa Rāhui o Bridgman","start_date":"1953","wikidata":"Q134802234"}},{"type":"way","id":9781952,"center":{"lat":-36.8725086,"lon":174.7382093},"tags":{"leisure":"park","name":"School Reserve","name:en":"School Reserve","name:mi":"Te Papa Rāhui o School"}},{"type":"way","id":9796353,"center":{"lat":-36.8922029,"lon":174.9277124},"tags":{"leisure":"park","name":"Stockade Hill","wikidata":"Q16900699","wikipedia":"en:Stockade Hill"}},{"type":"way","id":10493657,"center":{"lat":-36.8854764,"lon":174.9058728},"tags":{"leisure":"park","name":"Cornelian Park","opening_hours":"24/7"}},{"type":"way","id":10720627,"center":{"lat":-36.8898234,"lon":174.7588075},"tags":{"addr:city":"Auckland","addr:housenumber":"58","addr:postcode":"1024","addr:street":"Balmoral Road","addr:suburb":"Mount Eden","dog":"unleashed","leisure":"park","name":"Balmoral Heights Reserve","name:en":"Balmoral Heights Reserve","name:mi":"Te Papa Rāhui o Balmoral Heights","official_name":"Balmoral Heights","official_name:en":"Balmoral Heights","operator":"Auckland Council","operator:type":"government","operator:wikidata":"Q758635","ref:linz:address_id":"1126362","website":"https://www.aucklandcouncil.govt.nz/parks-recreation/Pages/park-details.aspx?Location=1479#dogwalking"}},{"type":"way","id":10720723,"center":{"lat":-36.8865981,"lon":174.7490128},"tags":{"addr:city":"Auckland","addr:housenumber":"173","addr:postcode":"1024","addr:street":"Balmoral Road","addr:suburb":"Mount Eden","dog":"leashed","leisure":"park","name":"Potters Park","name:en":"Potters Park","name:mi":"Te Papa Rēhia o Potters","operator":"Auckland Council","operator:type":"government","operator:wikidata":"Q758635","ref:linz:address_id":"1405050","website":"https://www.aucklandcouncil.govt.nz/parks-recreation/Pages/park-details.aspx?Location=111","wikidata":"Q137804061"}},{"type":"way","id":11019129,"center":{"lat":-36.7838084,"lon":174.7239753},"tags":{"leisure":"park","name":"Downing Street Reserve","name:en":"Downing Street Reserve","name:mi":"Te Papa Rāhui o te Tiriti o Downing"}},{"type":"way","id":11037468,"center":{"lat":-36.7871642,"lon":174.7711637},"tags":{"addr:city":"Auckland","addr:housenumber":"42","addr:postcode":"0622","addr:street":"Anzac Street","addr:suburb":"Takapuna","alt_name":"Takapuna Rose Gardens","leisure":"park","name":"Potters Park","name:en":"Potters Park","name:etymology":"Frederick Seymour Potter","name:etymology:wikidata":"Q53835889","name:mi":"Te Papa Rēhia o Potter","opening_hours":"24/7","start_date":"1929","wikidata":"Q130492263"}},{"type":"way","id":12134270,"center":{"lat":-36.8893503,"lon":174.9031586},